{
  "El Chato": {
    "place_id": "ChIJQclc-kSaP44RJgBygHivOB4",
    "lat": 4.647952,
    "lng": -74.057071,
    "dir": "Cl. 65 #4-76, Chapinero, Alto, Bogotá",
    "rating": 4.4,
    "rating_count": 3047,
    "price_level": "PRICE_LEVEL_VERY_EXPENSIVE",
    "google_maps_uri": "https://maps.google.com/?cid=2177683351919525926&g_mp=Cidnb29nbGUubWFwcy5wbGFjZXMudjEuUGxhY2VzLlNlYXJjaFRleHQQAhgEIAA",
    "google_name": "El Chato"
  },
  "Leo Cocina y Cava": {
    "place_id": "ChIJf0x6pJuZP44RbF-3kBjiZLs",
    "lat": 4.648032,
    "lng": -74.056437,
    "dir": "Cl. 65 Bis #4-23, Bogotá",
    "rating": 4.4,
    "rating_count": 1683,
    "price_level": "PRICE_LEVEL_VERY_EXPENSIVE",
    "google_maps_uri": "https://maps.google.com/?cid=13503166177898618732&g_mp=Cidnb29nbGUubWFwcy5wbGFjZXMudjEuUGxhY2VzLlNlYXJjaFRleHQQAhgEIAA",
    "google_name": "LEO"
  },
  "Afluente": {
    "place_id": "ChIJp2-bW3ubP44RfxtjR_I9OTY",
    "lat": 4.642206,
    "lng": -74.059694,
    "dir": "Cra 3a #57 -35, Bogotá",
    "rating": 4.8,
    "rating_count": 205,
    "price_level": null,
    "google_maps_uri": "https://maps.google.com/?cid=3907222262509673343&g_mp=Cidnb29nbGUubWFwcy5wbGFjZXMudjEuUGxhY2VzLlNlYXJjaFRleHQQAhgEIAA",
    "google_name": "Afluente Restaurante"
  },
  "Humo Negro": {
    "place_id": "ChIJJTHLru-bP44R2ZY-9uplUfQ",
    "lat": 4.641729,
    "lng": -74.061094,
    "dir": "Cra. 5 #56-06, Chapinero, Bogotá",
    "rating": 4.6,
    "rating_count": 665,
    "price_level": null,
    "google_maps_uri": "https://maps.google.com/?cid=17604964478196029145&g_mp=Cidnb29nbGUubWFwcy5wbGFjZXMudjEuUGxhY2VzLlNlYXJjaFRleHQQAhgEIAA",
    "google_name": "Humo Negro"
  },
  "Oda": {
    "place_id": "ChIJwdlTM-6YP44Ro2d95b1qS0c",
    "lat": 4.573554,
    "lng": -74.090814,
    "dir": "Cra. 6 #66, Bogotá",
    "rating": null,
    "rating_count": null,
    "price_level": null,
    "google_maps_uri": "https://maps.google.com/?cid=5137317163777746851&g_mp=Cidnb29nbGUubWFwcy5wbGFjZXMudjEuUGxhY2VzLlNlYXJjaFRleHQQAhgEIAA",
    "google_name": "Cra. 6 #66"
  },
  "Criterión": {
    "place_id": "ChIJkYfgsmqbP44R0RG6v4-8FTc",
    "lat": 4.65169,
    "lng": -74.056011,
    "dir": "Cl. 69a # 5 – 75, Chapinero, Bogotá, Cundinamarca",
    "rating": 4.6,
    "rating_count": 2048,
    "price_level": "PRICE_LEVEL_VERY_EXPENSIVE",
    "google_maps_uri": "https://maps.google.com/?cid=3969285972179947985&g_mp=Cidnb29nbGUubWFwcy5wbGFjZXMudjEuUGxhY2VzLlNlYXJjaFRleHQQAhgEIAA",
    "google_name": "Criterión"
  },
  "El Cielo Bogotá": {
    "place_id": "ChIJWT49HEKaP44ROyAodl5Lri0",
    "lat": 4.651453,
    "lng": -74.05465,
    "dir": "Cl. 70 #4-47, Bogotá",
    "rating": 4.5,
    "rating_count": 2078,
    "price_level": "PRICE_LEVEL_VERY_EXPENSIVE",
    "google_maps_uri": "https://maps.google.com/?cid=3291651246735761467&g_mp=Cidnb29nbGUubWFwcy5wbGFjZXMudjEuUGxhY2VzLlNlYXJjaFRleHQQAhgEIAA",
    "google_name": "Elcielo Restaurant Bogotá"
  },
  "Mesa Franca": {
    "place_id": "ChIJCStb0TuaP44Rv8CeFg9Jop4",
    "lat": 4.646129,
    "lng": -74.060129,
    "dir": "Cl. 61 #5-56, Bogotá",
    "rating": 4.5,
    "rating_count": 1703,
    "price_level": "PRICE_LEVEL_EXPENSIVE",
    "google_maps_uri": "https://maps.google.com/?cid=11430779133372580031&g_mp=Cidnb29nbGUubWFwcy5wbGFjZXMudjEuUGxhY2VzLlNlYXJjaFRleHQQAhgEIAA",
    "google_name": "Mesa Franca"
  },
  "Salvo Patria": {
    "place_id": "ChIJ1SRa6juaP44RBh-Fm_91DPo",
    "lat": 4.643454,
    "lng": -74.060057,
    "dir": "Cra. 4 Bis #58-60, Chapinero, Bogotá, Cundinamarca",
    "rating": 4.6,
    "rating_count": 1684,
    "price_level": null,
    "google_maps_uri": "https://maps.google.com/?cid=18017905949888814854&g_mp=Cidnb29nbGUubWFwcy5wbGFjZXMudjEuUGxhY2VzLlNlYXJjaFRleHQQAhgEIAA",
    "google_name": "Salvo Patria"
  },
  "Prudencia": {
    "place_id": "ChIJ6f1lSa-ZP44Ry90BHZYn4uc",
    "lat": 4.595751,
    "lng": -74.070689,
    "dir": "Cra. 2 #11-34, Bogotá",
    "rating": 4.7,
    "rating_count": 1033,
    "price_level": "PRICE_LEVEL_EXPENSIVE",
    "google_maps_uri": "https://maps.google.com/?cid=16708961093183200715&g_mp=Cidnb29nbGUubWFwcy5wbGFjZXMudjEuUGxhY2VzLlNlYXJjaFRleHQQAhgEIAA",
    "google_name": "Prudencia"
  },
  "Mini-Mal": {
    "place_id": "ChIJDwjZRjmaP44RRiWg-C6GDjE",
    "lat": 4.642485,
    "lng": -74.060344,
    "dir": "Tv. 4 Bis #56A-52, Bogotá",
    "rating": 4.6,
    "rating_count": 2351,
    "price_level": "PRICE_LEVEL_MODERATE",
    "google_maps_uri": "https://maps.google.com/?cid=3534910293830280518&g_mp=Cidnb29nbGUubWFwcy5wbGFjZXMudjEuUGxhY2VzLlNlYXJjaFRleHQQAhgEIAA",
    "google_name": "Mini Mal"
  },
  "Harry Sasson": {
    "place_id": "ChIJkdKNmV2aP44RJQpGQ2JO554",
    "lat": 4.659312,
    "lng": -74.054582,
    "dir": "Cra. 9 #75-70, Bogotá",
    "rating": 4.6,
    "rating_count": 4676,
    "price_level": "PRICE_LEVEL_VERY_EXPENSIVE",
    "google_maps_uri": "https://maps.google.com/?cid=11450206761555200549&g_mp=Cidnb29nbGUubWFwcy5wbGFjZXMudjEuUGxhY2VzLlNlYXJjaFRleHQQAhgEIAA",
    "google_name": "Harry Sasson"
  },
  "La Cabrera": {
    "place_id": "ChIJRbQdAW2bP44RjX-JIWZYygE",
    "lat": 4.651414,
    "lng": -74.055549,
    "dir": "Cl. 69a #5-19, Bogotá",
    "rating": 4.7,
    "rating_count": 1727,
    "price_level": null,
    "google_maps_uri": "https://maps.google.com/?cid=129012735006048141&g_mp=Cidnb29nbGUubWFwcy5wbGFjZXMudjEuUGxhY2VzLlNlYXJjaFRleHQQAhgEIAA",
    "google_name": "La Cabrera Bogotá l Parrilla Argentina | Restaurante Zona G"
  },
  "Club Colombia": {
    "place_id": "ChIJqwoFRCCbP44RCCWVTowyb6A",
    "lat": 4.688332,
    "lng": -74.07888,
    "dir": "Cl. 93a, Bogotá",
    "rating": 5,
    "rating_count": 2,
    "price_level": null,
    "google_maps_uri": "https://maps.google.com/?cid=11560514346678560008&g_mp=Cidnb29nbGUubWFwcy5wbGFjZXMudjEuUGxhY2VzLlNlYXJjaFRleHQQAhgEIAA",
    "google_name": "Club Colombia"
  },
  "Central Cevichería": {
    "place_id": "ChIJIamrMouaP44Rr9BaZMNzugQ",
    "lat": 4.66925,
    "lng": -74.05349,
    "dir": "Kr 13 # 85 -14, Bogotá",
    "rating": 4.6,
    "rating_count": 5436,
    "price_level": "PRICE_LEVEL_EXPENSIVE",
    "google_maps_uri": "https://maps.google.com/?cid=340712004859383983&g_mp=Cidnb29nbGUubWFwcy5wbGFjZXMudjEuUGxhY2VzLlNlYXJjaFRleHQQAhgEIAA",
    "google_name": "Central Cevichería Cll 85"
  },
  "Pizzardi Artigianale": {
    "place_id": "ChIJjSi_ypebP44RRJ8RDQeVbuM",
    "lat": 4.664976,
    "lng": -74.053835,
    "dir": "Cl. 81 #11 - 17 BOGOTÁ, Chapinero, Bogotá, Cundinamarca",
    "rating": 4.8,
    "rating_count": 3376,
    "price_level": null,
    "google_maps_uri": "https://maps.google.com/?cid=16388199951564382020&g_mp=Cidnb29nbGUubWFwcy5wbGFjZXMudjEuUGxhY2VzLlNlYXJjaFRleHQQAhgEIAA",
    "google_name": "Pizzardi Artigianale Cl 81"
  },
  "La Lucha Sanguchería": {
    "place_id": "ChIJudmf0_SaP44R4kPvqABjcZY",
    "lat": 4.668992,
    "lng": -74.053707,
    "dir": "Ac. 85 #12-95, Chapinero, Bogotá, Cundinamarca",
    "rating": 4.5,
    "rating_count": 2578,
    "price_level": "PRICE_LEVEL_MODERATE",
    "google_maps_uri": "https://maps.google.com/?cid=10840554632542897122&g_mp=Cidnb29nbGUubWFwcy5wbGFjZXMudjEuUGxhY2VzLlNlYXJjaFRleHQQAhgEIAA",
    "google_name": "La Lucha Sanguchería Criolla 85"
  },
  "La Puerta Falsa": {
    "place_id": "ChIJybfDx6eZP44RYZ5QuXtKwG0",
    "lat": 4.598013,
    "lng": -74.074814,
    "dir": "Cl. 11 #6-50, Bogotá",
    "rating": 4.3,
    "rating_count": 5675,
    "price_level": "PRICE_LEVEL_INEXPENSIVE",
    "google_maps_uri": "https://maps.google.com/?cid=7908402840913092193&g_mp=Cidnb29nbGUubWFwcy5wbGFjZXMudjEuUGxhY2VzLlNlYXJjaFRleHQQAhgEIAA",
    "google_name": "La Puerta Falsa"
  },
  "Restaurante La Puerta de la Tradición (Santa Fe)": {
    "place_id": "ChIJm9W6zqeZP44R5F7ooNZMpsU",
    "lat": 4.597908,
    "lng": -74.074709,
    "dir": "Cl. 11 #6-30, La Candelaria, Bogotá",
    "rating": 3.7,
    "rating_count": 214,
    "price_level": null,
    "google_maps_uri": "https://maps.google.com/?cid=14242155356312067812&g_mp=Cidnb29nbGUubWFwcy5wbGFjZXMudjEuUGxhY2VzLlNlYXJjaFRleHQQAhgEIAA",
    "google_name": "La Puerta De La Tradición"
  },
  "Casa Vieja": {
    "place_id": "ChIJmWD64aWZP44RHLwNoR7IXEg",
    "lat": 4.600499,
    "lng": -74.069584,
    "dir": "Av. Calle 13 #3-57, Bogotá",
    "rating": 4.3,
    "rating_count": 518,
    "price_level": "PRICE_LEVEL_MODERATE",
    "google_maps_uri": "https://maps.google.com/?cid=5214262502464797724&g_mp=Cidnb29nbGUubWFwcy5wbGFjZXMudjEuUGxhY2VzLlNlYXJjaFRleHQQAhgEIAA",
    "google_name": "Casa Vieja"
  },
  "Crepes & Waffles": {
    "place_id": "ChIJv49v_YqaP44R0mYjflJD0zU",
    "lat": 4.668653,
    "lng": -74.051287,
    "dir": "Carrera 11, Ac. 85 # 85 - 79, Bogotá",
    "rating": 4.5,
    "rating_count": 1657,
    "price_level": "PRICE_LEVEL_MODERATE",
    "google_maps_uri": "https://maps.google.com/?cid=3878517725678757586&g_mp=Cidnb29nbGUubWFwcy5wbGFjZXMudjEuUGxhY2VzLlNlYXJjaFRleHQQAhgEIAA",
    "google_name": "Crepes & Waffles Calle 85"
  },
  "Andrés Carne de Res (Chía)": {
    "place_id": "ChIJFRm5s4yHP44RffM5riPFkqs",
    "lat": 4.854331,
    "lng": -74.065428,
    "dir": "Cl. 3 #N° 11A - 56, Chía, Cundinamarca",
    "rating": 4.5,
    "rating_count": 6069,
    "price_level": "PRICE_LEVEL_EXPENSIVE",
    "google_maps_uri": "https://maps.google.com/?cid=12363160684122993533&g_mp=Cidnb29nbGUubWFwcy5wbGFjZXMudjEuUGxhY2VzLlNlYXJjaFRleHQQAhgEIAA",
    "google_name": "Andrés Carne de Res Chía"
  },
  "Tropicalia Coffee": {
    "place_id": "ChIJE0prjS-bP44R92imaf-A6Nw",
    "lat": 4.663761,
    "lng": -74.050684,
    "dir": "Cl. 81a #8-23, Bogotá",
    "rating": 4.2,
    "rating_count": 1028,
    "price_level": "PRICE_LEVEL_MODERATE",
    "google_maps_uri": "https://maps.google.com/?cid=15918114717418547447&g_mp=Cidnb29nbGUubWFwcy5wbGFjZXMudjEuUGxhY2VzLlNlYXJjaFRleHQQAhgEIAA",
    "google_name": "Tropicalia Coffee"
  },
  "Azahar Café": {
    "place_id": "ChIJBSLYiJKaP44ROgBmQ7z-Ab0",
    "lat": 4.678037,
    "lng": -74.050155,
    "dir": "Cl 93b #13-91, Bogotá",
    "rating": 4.6,
    "rating_count": 3354,
    "price_level": "PRICE_LEVEL_MODERATE",
    "google_maps_uri": "https://maps.google.com/?cid=13619446832683155514&g_mp=Cidnb29nbGUubWFwcy5wbGFjZXMudjEuUGxhY2VzLlNlYXJjaFRleHQQAhgEIAA",
    "google_name": "Azahar Café"
  },
  "Café Cultor": {
    "place_id": "ChIJK13F1EOaP44RDgle2lELJ50",
    "lat": 4.654937,
    "lng": -74.058282,
    "dir": "Cl. 70a #9 - 44 Casa, Bogotá",
    "rating": 4.6,
    "rating_count": 2062,
    "price_level": "PRICE_LEVEL_MODERATE",
    "google_maps_uri": "https://maps.google.com/?cid=11324032234230253838&g_mp=Cidnb29nbGUubWFwcy5wbGFjZXMudjEuUGxhY2VzLlNlYXJjaFRleHQQAhgEIAA",
    "google_name": "Casa Café Cultor"
  },
  "Catación Pública": {
    "place_id": "ChIJD0prTqSLOI4RJqbdTPr8Vh4",
    "lat": 4.564618,
    "lng": -75.65048,
    "dir": "Cra. 14 #35 norte- 18, Armenia, Quindío",
    "rating": 4.8,
    "rating_count": 104,
    "price_level": null,
    "google_maps_uri": "https://maps.google.com/?cid=2186212821096572454&g_mp=Cidnb29nbGUubWFwcy5wbGFjZXMudjEuUGxhY2VzLlNlYXJjaFRleHQQAhgEIAA",
    "google_name": "Catación Pública Armenia"
  },
  "Libertario Coffee Roasters": {
    "place_id": "ChIJkbNgZEKaP44RhIuGf13gfLg",
    "lat": 4.652733,
    "lng": -74.05487,
    "dir": "Cl. 70a # 5 - 37, Bogotá",
    "rating": 4.6,
    "rating_count": 1552,
    "price_level": "PRICE_LEVEL_MODERATE",
    "google_maps_uri": "https://maps.google.com/?cid=13293746892266965892&g_mp=Cidnb29nbGUubWFwcy5wbGFjZXMudjEuUGxhY2VzLlNlYXJjaFRleHQQAhgEIAA",
    "google_name": "Libertario Coffee Roasters - Calle 70a"
  },
  "Amor Perfecto": {
    "place_id": "ChIJwXLng0CaP44RdFS3YFjewS0",
    "lat": 4.648912,
    "lng": -74.055376,
    "dir": "Cra. 4 #66-46, Chapinero, Bogotá, Cundinamarca",
    "rating": 4.6,
    "rating_count": 1785,
    "price_level": "PRICE_LEVEL_MODERATE",
    "google_maps_uri": "https://maps.google.com/?cid=3297160873373029492&g_mp=Cidnb29nbGUubWFwcy5wbGFjZXMudjEuUGxhY2VzLlNlYXJjaFRleHQQAhgEIAA",
    "google_name": "Café Amor Perfecto Chapinero Alto"
  },
  "Colo Coffee": {
    "place_id": "ChIJbTvTOfWaP44RQnHqSCoyz9I",
    "lat": 4.667868,
    "lng": -74.05454,
    "dir": "Kr 13 #83 - 19, Bogotá",
    "rating": 4.6,
    "rating_count": 762,
    "price_level": "PRICE_LEVEL_MODERATE",
    "google_maps_uri": "https://maps.google.com/?cid=15190415225337311554&g_mp=Cidnb29nbGUubWFwcy5wbGFjZXMudjEuUGxhY2VzLlNlYXJjaFRleHQQAhgEIAA",
    "google_name": "Colo Coffee Emprendu"
  },
  "Brot Bakery & Café": {
    "place_id": "ChIJ94JiAmGaP44R_w1-PH83TWw",
    "lat": 4.663056,
    "lng": -74.050517,
    "dir": "Cl. 81 #7-93, Bogotá",
    "rating": 4.6,
    "rating_count": 1750,
    "price_level": "PRICE_LEVEL_MODERATE",
    "google_maps_uri": "https://maps.google.com/?cid=7803954748918205951&g_mp=Cidnb29nbGUubWFwcy5wbGFjZXMudjEuUGxhY2VzLlNlYXJjaFRleHQQAhgEIAA",
    "google_name": "Brot"
  },
  "Masa (Rosales)": {
    "place_id": "ChIJ41-LIkKaP44RIgGFoJ-zRu4",
    "lat": 4.651682,
    "lng": -74.055005,
    "dir": "Cl. 70 #4-83, Bogotá",
    "rating": 4.5,
    "rating_count": 3798,
    "price_level": "PRICE_LEVEL_MODERATE",
    "google_maps_uri": "https://maps.google.com/?cid=17169608127570837794&g_mp=Cidnb29nbGUubWFwcy5wbGFjZXMudjEuUGxhY2VzLlNlYXJjaFRleHQQAhgEIAA",
    "google_name": "Masa 70 | Restaurante"
  },
  "Árbol del Pan": {
    "place_id": "ChIJwXLng0CaP44RdFS3YFjewS0",
    "lat": 4.648912,
    "lng": -74.055376,
    "dir": "Cra. 4 #66-46, Chapinero, Bogotá, Cundinamarca",
    "rating": 4.6,
    "rating_count": 1785,
    "price_level": "PRICE_LEVEL_MODERATE",
    "google_maps_uri": "https://maps.google.com/?cid=3297160873373029492&g_mp=Cidnb29nbGUubWFwcy5wbGFjZXMudjEuUGxhY2VzLlNlYXJjaFRleHQQAhgEIAA",
    "google_name": "Café Amor Perfecto Chapinero Alto"
  },
  "Andrés D.C.": {
    "place_id": "ChIJsXAk_TybP44REHFuyaadU8I",
    "lat": 4.666407,
    "lng": -74.054408,
    "dir": "Cl. 82 #12 -21, Bogotá",
    "rating": 4.4,
    "rating_count": 16394,
    "price_level": "PRICE_LEVEL_EXPENSIVE",
    "google_maps_uri": "https://maps.google.com/?cid=14002709006094594320&g_mp=Cidnb29nbGUubWFwcy5wbGFjZXMudjEuUGxhY2VzLlNlYXJjaFRleHQQAhgEIAA",
    "google_name": "Andrés D.C. Bogotá"
  },
  "Gaira Café Cumbia House": {
    "place_id": "ChIJf0RGVpGaP44RAkq6w68SrIM",
    "lat": 4.68069,
    "lng": -74.047552,
    "dir": "Kr 13 #96-11, Chapinero, Bogotá, Cundinamarca",
    "rating": 4.5,
    "rating_count": 10567,
    "price_level": "PRICE_LEVEL_EXPENSIVE",
    "google_maps_uri": "https://maps.google.com/?cid=9487979061075134978&g_mp=Cidnb29nbGUubWFwcy5wbGFjZXMudjEuUGxhY2VzLlNlYXJjaFRleHQQAhgEIAA",
    "google_name": "Cumbia House by Carlos Vives"
  },
  "Theatron": {
    "place_id": "ChIJrWVrRjiaP44RI4GKwG_Gx6I",
    "lat": 4.644929,
    "lng": -74.063764,
    "dir": "Cl. 58 #10-32, Bogotá",
    "rating": 4.4,
    "rating_count": 4754,
    "price_level": "PRICE_LEVEL_MODERATE",
    "google_maps_uri": "https://maps.google.com/?cid=11729561937783718179&g_mp=Cidnb29nbGUubWFwcy5wbGFjZXMudjEuUGxhY2VzLlNlYXJjaFRleHQQAhgEIAA",
    "google_name": "Club THEATRON"
  },
  "Armando Records": {
    "place_id": "ChIJCSM-xP6aP44RTZMKbmVEdFY",
    "lat": 4.669988,
    "lng": -74.072143,
    "dir": "Cra. 50 #7452 #74a- a, Bogotá",
    "rating": 3,
    "rating_count": 2,
    "price_level": null,
    "google_maps_uri": "https://maps.google.com/?cid=6229679386988811085&g_mp=Cidnb29nbGUubWFwcy5wbGFjZXMudjEuUGxhY2VzLlNlYXJjaFRleHQQAhgEIAA",
    "google_name": "Bar Armando"
  },
  "Baum": {
    "place_id": "ChIJv_feQQCZP44R8_pSy2feq2E",
    "lat": 4.619271,
    "lng": -74.066515,
    "dir": "Cl. 33 #6-24, Santa Fé, Bogotá, D.C, Bogotá",
    "rating": null,
    "rating_count": null,
    "price_level": null,
    "google_maps_uri": "https://maps.google.com/?cid=7037963380070742771&g_mp=Cidnb29nbGUubWFwcy5wbGFjZXMudjEuUGxhY2VzLlNlYXJjaFRleHQQAhgEIAA",
    "google_name": "BAUM Bogoá"
  },
  "Video Club": {
    "place_id": "ChIJlUkDbkaaP44ROKkg2Ab-_to",
    "lat": 4.650813,
    "lng": -74.063501,
    "dir": "Cl. 64 #13-09, Bogotá",
    "rating": 4.3,
    "rating_count": 1771,
    "price_level": "PRICE_LEVEL_EXPENSIVE",
    "google_maps_uri": "https://maps.google.com/?cid=15780329449702074680&g_mp=Cidnb29nbGUubWFwcy5wbGFjZXMudjEuUGxhY2VzLlNlYXJjaFRleHQQAhgEIAA",
    "google_name": "Video Club"
  },
  "Apache Rooftop (Click Clack)": {
    "place_id": "ChIJsWu4CY6aP44RDeD6pciLpJM",
    "lat": 4.675327,
    "lng": -74.047489,
    "dir": "Cra. 11 #93-77, Bogotá",
    "rating": 4.5,
    "rating_count": 1101,
    "price_level": "PRICE_LEVEL_EXPENSIVE",
    "google_maps_uri": "https://maps.google.com/?cid=10638781913650356237&g_mp=Cidnb29nbGUubWFwcy5wbGFjZXMudjEuUGxhY2VzLlNlYXJjaFRleHQQAhgEIAA",
    "google_name": "Apache Rooftop Bar"
  },
  "Galería Café Libro": {
    "place_id": "ChIJPXNe5I2aP44R7Rmq0qND358",
    "lat": 4.675204,
    "lng": -74.048019,
    "dir": "Cra. 11a #93-42, Chapinero, Bogotá, Cundinamarca",
    "rating": 4.4,
    "rating_count": 3148,
    "price_level": "PRICE_LEVEL_EXPENSIVE",
    "google_maps_uri": "https://maps.google.com/?cid=11520000742730111469&g_mp=Cidnb29nbGUubWFwcy5wbGFjZXMudjEuUGxhY2VzLlNlYXJjaFRleHQQAhgEIAA",
    "google_name": "Galeria Café Libro / Parque de la 93"
  },
  "Bogotá Beer Company (BBC)": {
    "place_id": "ChIJxY4QtYqaP44Rwll3XybO8UA",
    "lat": 4.667255,
    "lng": -74.053314,
    "dir": "Cra. 12 # 83-33, Chapinero, Bogotá, Cundinamarca",
    "rating": 4.6,
    "rating_count": 2634,
    "price_level": "PRICE_LEVEL_MODERATE",
    "google_maps_uri": "https://maps.google.com/?cid=4679748152020392386&g_mp=Cidnb29nbGUubWFwcy5wbGFjZXMudjEuUGxhY2VzLlNlYXJjaFRleHQQAhgEIAA",
    "google_name": "Bogotá Beer Company"
  },
  "Taninos Park Wines": {
    "place_id": "ChIJHZioyHybP44RfUT8hM2sOlc",
    "lat": 4.627529,
    "lng": -74.074648,
    "dir": "Cl. 39 #21-19, Bogotá",
    "rating": 4.5,
    "rating_count": 138,
    "price_level": null,
    "google_maps_uri": "https://maps.google.com/?cid=6285526228648346749&g_mp=Cidnb29nbGUubWFwcy5wbGFjZXMudjEuUGxhY2VzLlNlYXJjaFRleHQQAhgEIAA",
    "google_name": "Taninos Park Wines"
  },
  "Zona T / Zona Rosa (vida nocturna)": {
    "place_id": "ChIJgeGlw_GbP44Rg70YWA_TUfs",
    "lat": 4.66744,
    "lng": -74.054789,
    "dir": "Kr 13 #82-43, Colombia, Bogotá",
    "rating": 3.6,
    "rating_count": 374,
    "price_level": null,
    "google_maps_uri": "https://maps.google.com/?cid=18109487639489461635&g_mp=Cidnb29nbGUubWFwcy5wbGFjZXMudjEuUGxhY2VzLlNlYXJjaFRleHQQAhgEIAA",
    "google_name": "Latino Gang Bogotá"
  },
  "Museo del Oro": {
    "place_id": "ChIJzXwPxqaZP44R7VGgkWDNj8E",
    "lat": 4.601913,
    "lng": -74.072041,
    "dir": "Cra. 6 #15-88, Santa Fé, Bogotá, Cundinamarca",
    "rating": 4.8,
    "rating_count": 50134,
    "price_level": null,
    "google_maps_uri": "https://maps.google.com/?cid=13947592385633473005&g_mp=Cidnb29nbGUubWFwcy5wbGFjZXMudjEuUGxhY2VzLlNlYXJjaFRleHQQAhgEIAA",
    "google_name": "Museo del Oro"
  },
  "Museo Botero": {
    "place_id": "ChIJrZGCnaiZP44RrOFDQSLfni8",
    "lat": 4.596698,
    "lng": -74.07335,
    "dir": "Cl. 11 #4-41, Bogotá",
    "rating": 4.8,
    "rating_count": 25254,
    "price_level": null,
    "google_maps_uri": "https://maps.google.com/?cid=3431425304319746476&g_mp=Cidnb29nbGUubWFwcy5wbGFjZXMudjEuUGxhY2VzLlNlYXJjaFRleHQQAhgEIAA",
    "google_name": "Museo Botero"
  },
  "Museo Nacional de Colombia": {
    "place_id": "ChIJz3onhISZP44RI5mCru8jqzs",
    "lat": 4.615609,
    "lng": -74.068607,
    "dir": "Ak 7 #28-66, Bogotá",
    "rating": 4.7,
    "rating_count": 33532,
    "price_level": null,
    "google_maps_uri": "https://maps.google.com/?cid=4299569781587220771&g_mp=Cidnb29nbGUubWFwcy5wbGFjZXMudjEuUGxhY2VzLlNlYXJjaFRleHQQAhgEIAA",
    "google_name": "Museo Nacional de Colombia"
  },
  "MAMBO — Museo de Arte Moderno": {
    "place_id": "ChIJMZ9WEZmZP44Rd9Enj8ETJSI",
    "lat": 4.610405,
    "lng": -74.069274,
    "dir": "Cl. 24 #6-00, Bogotá",
    "rating": 4.6,
    "rating_count": 4366,
    "price_level": null,
    "google_maps_uri": "https://maps.google.com/?cid=2460394493479211383&g_mp=Cidnb29nbGUubWFwcy5wbGFjZXMudjEuUGxhY2VzLlNlYXJjaFRleHQQAhgEIAA",
    "google_name": "Museo de Arte Moderno de Bogotá MAMBO"
  },
  "Quinta de Bolívar": {
    "place_id": "ChIJRWhokbyZP44ReHF-qDIy_tg",
    "lat": 4.602455,
    "lng": -74.063004,
    "dir": "Calle 21 No.4A - 30 Este, La Candelaria, Bogotá",
    "rating": 4.7,
    "rating_count": 3120,
    "price_level": null,
    "google_maps_uri": "https://maps.google.com/?cid=15635990149433553272&g_mp=Cidnb29nbGUubWFwcy5wbGFjZXMudjEuUGxhY2VzLlNlYXJjaFRleHQQAhgEIAA",
    "google_name": "Casa Museo Quinta de Bolívar"
  },
  "Biblioteca Luis Ángel Arango": {
    "place_id": "ChIJxwI5nqiZP44R54J9v66d10o",
    "lat": 4.596839,
    "lng": -74.072717,
    "dir": "Cl. 11 #4-14, La Candelaria, Bogotá, Cundinamarca",
    "rating": 4.8,
    "rating_count": 2037,
    "price_level": null,
    "google_maps_uri": "https://maps.google.com/?cid=5392952452662002407&g_mp=Cidnb29nbGUubWFwcy5wbGFjZXMudjEuUGxhY2VzLlNlYXJjaFRleHQQAhgEIAA",
    "google_name": "Biblioteca Luis Ángel Arango del Banco de la República"
  },
  "Teatro Colón": {
    "place_id": "ChIJh-twfKiZP44R8KxnYB6zDHE",
    "lat": 4.596667,
    "lng": -74.07442,
    "dir": "Cl. 10 # 5-32, La Candelaria, Bogotá",
    "rating": 4.9,
    "rating_count": 7967,
    "price_level": null,
    "google_maps_uri": "https://maps.google.com/?cid=8146082769054182640&g_mp=Cidnb29nbGUubWFwcy5wbGFjZXMudjEuUGxhY2VzLlNlYXJjaFRleHQQAhgEIAA",
    "google_name": "Teatro Colón Bogotá"
  },
  "Maloka": {
    "place_id": "ChIJvT-ZVJCbP44RkmHezHMdjpM",
    "lat": 4.655353,
    "lng": -74.109462,
    "dir": "Cra. 68d #24A - 51, Bogotá",
    "rating": 4.3,
    "rating_count": 14435,
    "price_level": null,
    "google_maps_uri": "https://maps.google.com/?cid=10632468153463890322&g_mp=Cidnb29nbGUubWFwcy5wbGFjZXMudjEuUGxhY2VzLlNlYXJjaFRleHQQAhgEIAA",
    "google_name": "Maloka Museo Interactivo"
  },
  "Plaza de Bolívar": {
    "place_id": "ChIJj-XP7KeZP44RdhQ1NSu3nAk",
    "lat": 4.59819,
    "lng": -74.076053,
    "dir": "Cra. 7 #11-10, La Candelaria, Bogotá",
    "rating": 4.6,
    "rating_count": 89559,
    "price_level": null,
    "google_maps_uri": "https://maps.google.com/?cid=692629838912361590&g_mp=Cidnb29nbGUubWFwcy5wbGFjZXMudjEuUGxhY2VzLlNlYXJjaFRleHQQAhgEIAA",
    "google_name": "Plaza de Bolívar"
  },
  "Chorro de Quevedo": {
    "place_id": "Eh9DbC4gMTJiICMyMDAsIEJvZ290w6EsIENvbG9tYmlhIjESLwoUChIJfe0a8KWZP44R4eyexuAIXKIQyAEqFAoSCVMvardomT-OEaoqSfc0XxQ3",
    "lat": 4.597638,
    "lng": -74.070481,
    "dir": "Cl. 12b #200, Bogotá",
    "rating": null,
    "rating_count": null,
    "price_level": null,
    "google_maps_uri": "https://maps.google.com/?q=Cl.+12b+%23200,+Bogot%C3%A1,+Colombia&ftid=0x8e3f99a5f01aed7d:0x48f77bbfccd9aeed&g_mp=Cidnb29nbGUubWFwcy5wbGFjZXMudjEuUGxhY2VzLlNlYXJjaFRleHQQAhgEIAA",
    "google_name": "Cl. 12b #200"
  },
  "Tour de grafiti por La Candelaria": {
    "place_id": "ChIJFcfrX2KZP44R0YPjFq3yE1A",
    "lat": 4.601955,
    "lng": -74.071947,
    "dir": "Cra. 6 #15-88, Santa Fé, Bogotá, Cundinamarca",
    "rating": 5,
    "rating_count": 4713,
    "price_level": null,
    "google_maps_uri": "https://maps.google.com/?cid=5770222372819010513&g_mp=Cidnb29nbGUubWFwcy5wbGFjZXMudjEuUGxhY2VzLlNlYXJjaFRleHQQAhgEIAA",
    "google_name": "Capital Graffiti Tours"
  },
  "Cerro de Monserrate": {
    "place_id": "ChIJgTfkDnSZP44RhIG9_bKIQTg",
    "lat": 4.60557,
    "lng": -74.055446,
    "dir": "Santa Fé, Bogotá",
    "rating": 4.7,
    "rating_count": 33033,
    "price_level": null,
    "google_maps_uri": "https://maps.google.com/?cid=4053671441952768388&g_mp=Cidnb29nbGUubWFwcy5wbGFjZXMudjEuUGxhY2VzLlNlYXJjaFRleHQQAhgEIAA",
    "google_name": "Basílica del Señor caído de Monserrate"
  },
  "Mirador Torre Colpatria": {
    "place_id": "ChIJZS1OOpmZP44RsVQLJAFGDD4",
    "lat": 4.61113,
    "lng": -74.070229,
    "dir": "Cra. 7 #24-89, Bogotá",
    "rating": 4.5,
    "rating_count": 6918,
    "price_level": null,
    "google_maps_uri": "https://maps.google.com/?cid=4471025500785693873&g_mp=Cidnb29nbGUubWFwcy5wbGFjZXMudjEuUGxhY2VzLlNlYXJjaFRleHQQAhgEIAA",
    "google_name": "Torre Colpatria"
  },
  "Parque El Virrey": {
    "place_id": "ChIJI_2_fa-bP44RLSsvxir4x2I",
    "lat": 4.674143,
    "lng": -74.053973,
    "dir": "Cra, 16 #88-52, Bogotá",
    "rating": 5,
    "rating_count": 1,
    "price_level": null,
    "google_maps_uri": "https://maps.google.com/?cid=7117930598679653165&g_mp=Cidnb29nbGUubWFwcy5wbGFjZXMudjEuUGxhY2VzLlNlYXJjaFRleHQQAhgEIAA",
    "google_name": "Edificio Parque el Virey"
  },
  "Jardín Botánico José Celestino Mutis": {
    "place_id": "ChIJKy8crgqbP44RqGHYK0w3TjY",
    "lat": 4.668439,
    "lng": -74.097356,
    "dir": "Ac 63 #68-95, Bogotá",
    "rating": 4.7,
    "rating_count": 59589,
    "price_level": null,
    "google_maps_uri": "https://maps.google.com/?cid=3913125926524182952&g_mp=Cidnb29nbGUubWFwcy5wbGFjZXMudjEuUGxhY2VzLlNlYXJjaFRleHQQAhgEIAA",
    "google_name": "Jardín Botánico de Bogotá José Celestino Mutis"
  },
  "Parque Metropolitano Simón Bolívar": {
    "place_id": "ChIJt18wXkGbP44RrtziQHXso3o",
    "lat": 4.678419,
    "lng": -74.082356,
    "dir": "Cra. 65b #7549, Bogotá",
    "rating": 4.2,
    "rating_count": 80,
    "price_level": null,
    "google_maps_uri": "https://maps.google.com/?cid=8837166882174983342&g_mp=Cidnb29nbGUubWFwcy5wbGFjZXMudjEuUGxhY2VzLlNlYXJjaFRleHQQAhgEIAA",
    "google_name": "Parque Barrio Simón Bolívar"
  },
  "Parque de la 93": {
    "place_id": "ChIJv2aRGpKaP44RWFk0TJsnKRw",
    "lat": 4.676722,
    "lng": -74.048279,
    "dir": "Cra. 11 #930-80 Ofc. 201, Chapinero, Bogotá, Cundinamarca",
    "rating": 4.6,
    "rating_count": 43097,
    "price_level": null,
    "google_maps_uri": "https://maps.google.com/?cid=2029196655059032408&g_mp=Cidnb29nbGUubWFwcy5wbGFjZXMudjEuUGxhY2VzLlNlYXJjaFRleHQQAhgEIAA",
    "google_name": "Parque de la 93"
  },
  "Mercado de pulgas de Usaquén": {
    "place_id": "ChIJgTfkDnSZP44RZrAvqWEv_XM",
    "lat": 4.693704,
    "lng": -74.032433,
    "dir": "Calle 119 Con Carrera 6a, Usaquén, Bogotá, Cundinamarca",
    "rating": 4.6,
    "rating_count": 4754,
    "price_level": null,
    "google_maps_uri": "https://maps.google.com/?cid=8357888579966316646&g_mp=Cidnb29nbGUubWFwcy5wbGFjZXMudjEuUGxhY2VzLlNlYXJjaFRleHQQAhgEIAA",
    "google_name": "Mercado de Las Pulgas en Usaquén"
  },
  "Plaza de Mercado de Paloquemao": {
    "place_id": "ChIJaR9BiXmZP44RTIL-vKlrSqE",
    "lat": 4.618206,
    "lng": -74.082659,
    "dir": "Carrera 25, Los Mártires, Bogotá D.C., Bogotá",
    "rating": 4.4,
    "rating_count": 878,
    "price_level": null,
    "google_maps_uri": "https://maps.google.com/?cid=11622220165147427404&g_mp=Cidnb29nbGUubWFwcy5wbGFjZXMudjEuUGxhY2VzLlNlYXJjaFRleHQQAhgEIAA",
    "google_name": "Plaza de Mercado Samper Mendoza"
  },
  "Plaza de Mercado La Perseverancia": {
    "place_id": "ChIJ6evPsZqZP44RlRfeO2VNgmI",
    "lat": 4.616465,
    "lng": -74.066279,
    "dir": "Cra. 5 #40 30 A, Bogotá",
    "rating": 4.4,
    "rating_count": 12055,
    "price_level": null,
    "google_maps_uri": "https://maps.google.com/?cid=7098321059880769429&g_mp=Cidnb29nbGUubWFwcy5wbGFjZXMudjEuUGxhY2VzLlNlYXJjaFRleHQQAhgEIAA",
    "google_name": "Plaza de mercado La Perseverancia"
  },
  "Centro Comercial Andino": {
    "place_id": "ChIJiQWeU_WaP44RchzwSWRT-Fg",
    "lat": 4.666848,
    "lng": -74.052573,
    "dir": "Cra. 11 #82-71, Chapinero, Bogotá, Cundinamarca",
    "rating": 4.5,
    "rating_count": 72808,
    "price_level": null,
    "google_maps_uri": "https://maps.google.com/?cid=6410965759764208754&g_mp=Cidnb29nbGUubWFwcy5wbGFjZXMudjEuUGxhY2VzLlNlYXJjaFRleHQQAhgEIAA",
    "google_name": "Centro Comercial Andino"
  },
  "Hacienda Santa Bárbara": {
    "place_id": "ChIJa36-_KaaP44RRcp7pSnSs08",
    "lat": 4.693555,
    "lng": -74.032959,
    "dir": "Ak 7 #115-60, Usaquén, Bogotá, Cundinamarca",
    "rating": 4.3,
    "rating_count": 27752,
    "price_level": null,
    "google_maps_uri": "https://maps.google.com/?cid=5743165026139359813&g_mp=Cidnb29nbGUubWFwcy5wbGFjZXMudjEuUGxhY2VzLlNlYXJjaFRleHQQAhgEIAA",
    "google_name": "Centro Comercial Hacienda Santa Bárbara"
  },
  "Artesanías de Colombia (San Diego)": {
    "place_id": "ChIJZQpgZqOZP44RlU8iahYRm4A",
    "lat": 4.602293,
    "lng": -74.067125,
    "dir": "Cra. 2 #18a-58, Bogotá",
    "rating": 4.7,
    "rating_count": 150,
    "price_level": null,
    "google_maps_uri": "https://maps.google.com/?cid=9267019446212513685&g_mp=Cidnb29nbGUubWFwcy5wbGFjZXMudjEuUGxhY2VzLlNlYXJjaFRleHQQAhgEIAA",
    "google_name": "Artesanías de Colombia"
  },
  "Tour en bici por Bogotá": {
    "place_id": "ChIJ0ZJvw6WZP44RVsqVGKUK2JA",
    "lat": 4.597233,
    "lng": -74.070982,
    "dir": "Cra. 3 #12-42, La Candelaria, Bogotá, Cundinamarca",
    "rating": 4.9,
    "rating_count": 1642,
    "price_level": null,
    "google_maps_uri": "https://maps.google.com/?cid=10437103840629475926&g_mp=Cidnb29nbGUubWFwcy5wbGFjZXMudjEuUGxhY2VzLlNlYXJjaFRleHQQAhgEIAA",
    "google_name": "Bogota Bike Tours"
  },
  "Catedral de Sal de Zipaquirá": {
    "place_id": "ChIJAXt7UCBwQI4RfyOsloFI3wA",
    "lat": 5.0187,
    "lng": -74.009917,
    "dir": "Parque De La Sal, Zipaquirá, Cundinamarca",
    "rating": 4.7,
    "rating_count": 23047,
    "price_level": null,
    "google_maps_uri": "https://maps.google.com/?cid=62848641222321023&g_mp=Cidnb29nbGUubWFwcy5wbGFjZXMudjEuUGxhY2VzLlNlYXJjaFRleHQQAhgEIAA",
    "google_name": "Catedral De Sal de Zipaquirá"
  },
  "Laguna de Guatavita": {
    "place_id": "ChIJD0YIDUsMQI4RzR_K0wUN_3Q",
    "lat": 4.977596,
    "lng": -73.774997,
    "dir": "Laguna de Guatavita, Sesquilé, Cundinamarca",
    "rating": 4.7,
    "rating_count": 1700,
    "price_level": null,
    "google_maps_uri": "https://maps.google.com/?cid=8430471346140094413&g_mp=Cidnb29nbGUubWFwcy5wbGFjZXMudjEuUGxhY2VzLlNlYXJjaFRleHQQAhgEIAA",
    "google_name": "Laguna de Guatavita"
  },
  "Mina de Sal de Nemocón": {
    "place_id": "ChIJMbdi8eJsQI4RebMHi5Te4eI",
    "lat": 5.063949,
    "lng": -73.874749,
    "dir": "Cl. 2 #0-05, Nemocón, Cundinamarca",
    "rating": 4.8,
    "rating_count": 11584,
    "price_level": null,
    "google_maps_uri": "https://maps.google.com/?cid=16348592851900674937&g_mp=Cidnb29nbGUubWFwcy5wbGFjZXMudjEuUGxhY2VzLlNlYXJjaFRleHQQAhgEIAA",
    "google_name": "Mina De Sal De Nemocón"
  },
  "Villa de Leyva": {
    "place_id": "ChIJGaF4PA7XQY4R3ZMRZnhrRGM",
    "lat": 5.636499,
    "lng": -73.527058,
    "dir": "Villa de Leyva, Boyacá",
    "rating": null,
    "rating_count": null,
    "price_level": null,
    "google_maps_uri": "https://maps.google.com/?cid=7152960273023865821&g_mp=Cidnb29nbGUubWFwcy5wbGFjZXMudjEuUGxhY2VzLlNlYXJjaFRleHQQAhgEIAA",
    "google_name": "Villa de Leyva"
  },
  "Parque Natural Chicaque": {
    "place_id": "ChIJD2yOU9ObP44RCkjtPCpuWCg",
    "lat": 4.606344,
    "lng": -74.304754,
    "dir": "Vía Soacha, Km. 8, Soacha, Mosquera, Cundinamarca",
    "rating": 4.7,
    "rating_count": 5312,
    "price_level": null,
    "google_maps_uri": "https://maps.google.com/?cid=2907194687157520394&g_mp=Cidnb29nbGUubWFwcy5wbGFjZXMudjEuUGxhY2VzLlNlYXJjaFRleHQQAhgEIAA",
    "google_name": "Parque Natural Chicaque"
  },
  "Suesca (senderismo y escalada)": {
    "place_id": "ChIJSaCeCiMTQI4RH8ANegSkjk4",
    "lat": 5.094834,
    "lng": -73.79136,
    "dir": "Via Cacicazgo, Suesca, Cundinamarca",
    "rating": 4.8,
    "rating_count": 3401,
    "price_level": null,
    "google_maps_uri": "https://maps.google.com/?cid=5660642120785838111&g_mp=Cidnb29nbGUubWFwcy5wbGFjZXMudjEuUGxhY2VzLlNlYXJjaFRleHQQAhgEIAA",
    "google_name": "Rocas de suesca"
  },
  "Selma": {
    "place_id": "ChIJOSQgPxabP44Rr4qZnncV59E",
    "lat": 4.647802,
    "lng": -74.056894,
    "dir": "Cl. 65 #4-50, Chapinero, Bogotá, Cundinamarca",
    "rating": 4.3,
    "rating_count": 371,
    "price_level": null,
    "google_maps_uri": "https://maps.google.com/?cid=15125081477053254319&g_mp=Cidnb29nbGUubWFwcy5wbGFjZXMudjEuUGxhY2VzLlNlYXJjaFRleHQQAhgEIAA",
    "google_name": "Selma"
  },
  "Debora": {
    "place_id": "ChIJoYhK7ymbP44RIzU7fCm7iV4",
    "lat": 4.650911,
    "lng": -74.055398,
    "dir": "Cl. 69 #4-80, Chapinero, Bogotá, Cundinamarca",
    "rating": 4.5,
    "rating_count": 212,
    "price_level": null,
    "google_maps_uri": "https://maps.google.com/?cid=6812181698226894115&g_mp=Cidnb29nbGUubWFwcy5wbGFjZXMudjEuUGxhY2VzLlNlYXJjaFRleHQQAhgEIAA",
    "google_name": "Debora Restaurante"
  },
  "Cuzco": {
    "place_id": "ChIJv5g6a5KaP44RN9fvqhJ1cJU",
    "lat": 4.677117,
    "lng": -74.04928,
    "dir": "Parque de la 93, Kr 13 # 93A - 31, Bogotá",
    "rating": 4.6,
    "rating_count": 2975,
    "price_level": "PRICE_LEVEL_EXPENSIVE",
    "google_maps_uri": "https://maps.google.com/?cid=10768235432080561975&g_mp=Cidnb29nbGUubWFwcy5wbGFjZXMudjEuUGxhY2VzLlNlYXJjaFRleHQQAhgEIAA",
    "google_name": "Cuzco Restaurante"
  },
  "Osaka": {
    "place_id": "ChIJlxMszfSaP44RkW1l_XWn5B0",
    "lat": 4.669481,
    "lng": -74.053652,
    "dir": "Kr 13 #8525, Bogotá",
    "rating": 4.7,
    "rating_count": 5124,
    "price_level": "PRICE_LEVEL_VERY_EXPENSIVE",
    "google_maps_uri": "https://maps.google.com/?cid=2154030646994234769&g_mp=Cidnb29nbGUubWFwcy5wbGFjZXMudjEuUGxhY2VzLlNlYXJjaFRleHQQAhgEIAA",
    "google_name": "Osaka Bogotá"
  },
  "Gordo": {
    "place_id": "ChIJpXDjpUGaP44RVpBbZS5f7HU",
    "lat": 4.73298,
    "lng": -74.066781,
    "dir": "Cra. 72 #145-60, Bogotá",
    "rating": 4.5,
    "rating_count": 1259,
    "price_level": "PRICE_LEVEL_EXPENSIVE",
    "google_maps_uri": "https://maps.google.com/?cid=8497271249814917206&g_mp=Cidnb29nbGUubWFwcy5wbGFjZXMudjEuUGxhY2VzLlNlYXJjaFRleHQQAhgEIAA",
    "google_name": "Gordo Brooklyn Restaurant Bar"
  },
  "Misia": {
    "place_id": "ChIJt4lDhgWZP44RXKX4O3TvEYg",
    "lat": 4.651304,
    "lng": -74.057874,
    "dir": "Ak 7 #67-39, Chapinero, Bogotá, Cundinamarca",
    "rating": 4.5,
    "rating_count": 1579,
    "price_level": null,
    "google_maps_uri": "https://maps.google.com/?cid=9804881146263676252&g_mp=Cidnb29nbGUubWFwcy5wbGFjZXMudjEuUGxhY2VzLlNlYXJjaFRleHQQAhgEIAA",
    "google_name": "Holiday Inn Express & Suites Bogota DC, an IHG Hotel"
  },
  "Mistral": {
    "place_id": "ChIJUW35-L6bP44RXUhniJYqjv4",
    "lat": 4.664317,
    "lng": -74.054224,
    "dir": "Cra. 11 #79-80, Bogotá",
    "rating": 4.2,
    "rating_count": 276,
    "price_level": null,
    "google_maps_uri": "https://maps.google.com/?cid=18342645158348539997&g_mp=Cidnb29nbGUubWFwcy5wbGFjZXMudjEuUGxhY2VzLlNlYXJjaFRleHQQAhgEIAA",
    "google_name": "Mistral Nogal"
  },
  "Di Lucca": {
    "place_id": "ChIJCQhmNIuaP44RHyX2RJSTG5s",
    "lat": 4.669316,
    "lng": -74.053414,
    "dir": "Kr 13 # 85-32, Chapinero, Bogotá, Cundinamarca",
    "rating": 4.6,
    "rating_count": 3979,
    "price_level": "PRICE_LEVEL_EXPENSIVE",
    "google_maps_uri": "https://maps.google.com/?cid=11176689165271442719&g_mp=Cidnb29nbGUubWFwcy5wbGFjZXMudjEuUGxhY2VzLlNlYXJjaFRleHQQAhgEIAA",
    "google_name": "Di Lucca 85"
  },
  "Watakushi": {
    "place_id": "ChIJzZzASvWaP44RF2U2wds2Tno",
    "lat": 4.667458,
    "lng": -74.053535,
    "dir": "Cra. 12 #83-17, Chapinero, Bogotá, Cundinamarca",
    "rating": 4.6,
    "rating_count": 1135,
    "price_level": null,
    "google_maps_uri": "https://maps.google.com/?cid=8813041838277944599&g_mp=Cidnb29nbGUubWFwcy5wbGFjZXMudjEuUGxhY2VzLlNlYXJjaFRleHQQAhgEIAA",
    "google_name": "Watakushi"
  },
  "La Cervecería Libre": {
    "place_id": "ChIJ2Y4cNPWaP44RNTAQDwwfk1M",
    "lat": 4.667853,
    "lng": -74.053932,
    "dir": "Cra. 12a #83-37, Chapinero, Bogotá, Cundinamarca",
    "rating": 4.3,
    "rating_count": 2381,
    "price_level": "PRICE_LEVEL_MODERATE",
    "google_maps_uri": "https://maps.google.com/?cid=6022191263377272885&g_mp=Cidnb29nbGUubWFwcy5wbGFjZXMudjEuUGxhY2VzLlNlYXJjaFRleHQQAhgEIAA",
    "google_name": "La Cervecería"
  },
  "Capital Cocina": {
    "place_id": "ChIJLZCMQWeZP44RU4d0h1NjdJA",
    "lat": 4.598015,
    "lng": -74.077182,
    "dir": "Cl. 10 #8-51, La Candelaria, Bogotá, Cundinamarca",
    "rating": 4.1,
    "rating_count": 560,
    "price_level": null,
    "google_maps_uri": "https://maps.google.com/?cid=10409053849166055251&g_mp=Cidnb29nbGUubWFwcy5wbGFjZXMudjEuUGxhY2VzLlNlYXJjaFRleHQQAhgEIAA",
    "google_name": "CAPITOL VINO Y PARRILLA"
  },
  "Varietale": {
    "place_id": "ChIJRyluYSiaP44RaoAGVqb67FI",
    "lat": 4.628765,
    "lng": -74.066364,
    "dir": "Cl. 41 #8-43, Bogotá",
    "rating": 4.7,
    "rating_count": 5967,
    "price_level": "PRICE_LEVEL_MODERATE",
    "google_maps_uri": "https://maps.google.com/?cid=5975426397928587370&g_mp=Cidnb29nbGUubWFwcy5wbGFjZXMudjEuUGxhY2VzLlNlYXJjaFRleHQQAhgEIAA",
    "google_name": "Varietale Javeriana"
  },
  "Devoción": {
    "place_id": "Eh9DcmEuIDYgIzY2MjUsIEJvZ290w6EsIENvbG9tYmlhIjESLwoUChIJJd3zFEGaP44RcaRVcvsfM5UQ4TMqFAoSCRefE3Fhmj-OEaUTH73KhkQQ",
    "lat": 4.649862,
    "lng": -74.057853,
    "dir": "Cra. 6 #6625, Bogotá",
    "rating": null,
    "rating_count": null,
    "price_level": null,
    "google_maps_uri": "https://maps.google.com/?q=Cra.+6+%236625,+Bogot%C3%A1,+Colombia&ftid=0x8e3f9a4114f3dd25:0x91cc3b037b18dcef&g_mp=Cidnb29nbGUubWFwcy5wbGFjZXMudjEuUGxhY2VzLlNlYXJjaFRleHQQAhgEIAA",
    "google_name": "Cra. 6 #6625"
  },
  "Café San Alberto (Candelaria)": {
    "place_id": "ChIJAYVxV-uZP44ReDguW5X_lhk",
    "lat": 4.602713,
    "lng": -74.072281,
    "dir": "Cra. 7 #16-36, Santa Fé, Bogotá, Cundinamarca",
    "rating": 4.4,
    "rating_count": 475,
    "price_level": null,
    "google_maps_uri": "https://maps.google.com/?cid=1843942114399762552&g_mp=Cidnb29nbGUubWFwcy5wbGFjZXMudjEuUGxhY2VzLlNlYXJjaFRleHQQAhgEIAA",
    "google_name": "Café San Alberto Centro de Bogotá - Edif. Avianca"
  },
  "Arte y Pasión Café": {
    "place_id": "ChIJqTYXeACZP44R1QhrzXqfB4g",
    "lat": 4.601618,
    "lng": -74.072283,
    "dir": "Cra. 6 #15-32, Bogotá",
    "rating": 5,
    "rating_count": 1,
    "price_level": null,
    "google_maps_uri": "https://maps.google.com/?cid=9801978463776344277&g_mp=Cidnb29nbGUubWFwcy5wbGFjZXMudjEuUGxhY2VzLlNlYXJjaFRleHQQAhgEIAA",
    "google_name": "Arte y Pasión Café"
  },
  "Café Quindío Premium": {
    "place_id": "ChIJWy89s6eaP44RHmljwnXblrk",
    "lat": 4.693992,
    "lng": -74.032851,
    "dir": "Flormorado Plaza, Ak 7 #116-50 Local 6, Bogotá",
    "rating": 4.5,
    "rating_count": 2555,
    "price_level": "PRICE_LEVEL_MODERATE",
    "google_maps_uri": "https://maps.google.com/?cid=13373117442342218014&g_mp=Cidnb29nbGUubWFwcy5wbGFjZXMudjEuUGxhY2VzLlNlYXJjaFRleHQQAhgEIAA",
    "google_name": "Café Quindío Usaquén"
  },
  "La Sala de Laura": {
    "place_id": "ChIJmxCzagCbP44ROffpSPjBZzc",
    "lat": 4.647993,
    "lng": -74.056461,
    "dir": "Cl. 65 Bis #4-23, Bogotá",
    "rating": 4.1,
    "rating_count": 74,
    "price_level": null,
    "google_maps_uri": "https://maps.google.com/?cid=3992372866806576953&g_mp=Cidnb29nbGUubWFwcy5wbGFjZXMudjEuUGxhY2VzLlNlYXJjaFRleHQQAhgEIAA",
    "google_name": "La Sala de Laura"
  },
  "Federal Rooftop": {
    "place_id": "ChIJzQMm-x-bP44RyYOYLlXeT7Q",
    "lat": 4.667795,
    "lng": -74.053306,
    "dir": "Cl. 84A #12-25 Piso 5, Chapinero, Bogotá, Cundinamarca",
    "rating": 4.6,
    "rating_count": 1481,
    "price_level": null,
    "google_maps_uri": "https://maps.google.com/?cid=12992847907422503881&g_mp=Cidnb29nbGUubWFwcy5wbGFjZXMudjEuUGxhY2VzLlNlYXJjaFRleHQQAhgEIAA",
    "google_name": "Federal Rooftop | The Best Nightclub in Bogotá"
  },
  "Sky 15 Rooftop": {
    "place_id": "ChIJvQuL7D-bP44RVuJqfrrTlUs",
    "lat": 4.655754,
    "lng": -74.055486,
    "dir": "Ak 7 #No. 72-41, Chapinero, Bogotá, Cundinamarca",
    "rating": 4.1,
    "rating_count": 193,
    "price_level": null,
    "google_maps_uri": "https://maps.google.com/?cid=5446492122312794710&g_mp=Cidnb29nbGUubWFwcy5wbGFjZXMudjEuUGxhY2VzLlNlYXJjaFRleHQQAhgEIAA",
    "google_name": "Sky 15 Rooftop"
  },
  "El Mono Bandido": {
    "place_id": "ChIJG5NZbjmZP44Rm4dHXLSVXZ0",
    "lat": 4.704938,
    "lng": -74.048694,
    "dir": "Cra 19 #125-34, Bogotá",
    "rating": 4.8,
    "rating_count": 7514,
    "price_level": "PRICE_LEVEL_MODERATE",
    "google_maps_uri": "https://maps.google.com/?cid=11339384038663620507&g_mp=Cidnb29nbGUubWFwcy5wbGFjZXMudjEuUGxhY2VzLlNlYXJjaFRleHQQAhgEIAA",
    "google_name": "El Mono Bandido Calle 127"
  },
  "Catedral Primada de Colombia": {
    "place_id": "ChIJj-XP7KeZP44RggthLR2n4rI",
    "lat": 4.598061,
    "lng": -74.075391,
    "dir": "Cra. 7 #10 - 20, Bogotá",
    "rating": 4.7,
    "rating_count": 2647,
    "price_level": null,
    "google_maps_uri": "https://maps.google.com/?cid=12890048827245005698&g_mp=Cidnb29nbGUubWFwcy5wbGFjZXMudjEuUGxhY2VzLlNlYXJjaFRleHQQAhgEIAA",
    "google_name": "Catedral Primada de Colombia"
  },
  "Iglesia de San Francisco": {
    "place_id": "ChIJoZGc9WmfP44RZvsh3R9IqSo",
    "lat": 4.563761,
    "lng": -74.148449,
    "dir": "Cra. 20f #66 Sur38, Bogotá",
    "rating": 4.2,
    "rating_count": 31,
    "price_level": null,
    "google_maps_uri": "https://maps.google.com/?cid=3074067522348252006&g_mp=Cidnb29nbGUubWFwcy5wbGFjZXMudjEuUGxhY2VzLlNlYXJjaFRleHQQAhgEIAA",
    "google_name": "Parroquia San Francisco de Asís"
  },
  "Centro Cultural Gabriel García Márquez": {
    "place_id": "ChIJD5gmM6aZP44RBcte7Sijr60",
    "lat": 4.597876,
    "lng": -74.074263,
    "dir": "Cl. 11 #5-60, Bogotá",
    "rating": 4.7,
    "rating_count": 9590,
    "price_level": null,
    "google_maps_uri": "https://maps.google.com/?cid=12515401285662329605&g_mp=Cidnb29nbGUubWFwcy5wbGFjZXMudjEuUGxhY2VzLlNlYXJjaFRleHQQAhgEIAA",
    "google_name": "Centro Cultural Gabriel García Márquez"
  },
  "Museo de Bogotá": {
    "place_id": "ChIJr5rIk6iZP44RA7dB2TwmSco",
    "lat": 4.595844,
    "lng": -74.073112,
    "dir": "Cra. 4 #10-18, Bogotá",
    "rating": 4.7,
    "rating_count": 2350,
    "price_level": null,
    "google_maps_uri": "https://maps.google.com/?cid=14576223711746176771&g_mp=Cidnb29nbGUubWFwcy5wbGFjZXMudjEuUGxhY2VzLlNlYXJjaFRleHQQAhgEIAA",
    "google_name": "Museo de Bogotá - Casa Sámano"
  },
  "Planetario de Bogotá": {
    "place_id": "ChIJJ114z5uZP44RoKQT0bYQ0_s",
    "lat": 4.612117,
    "lng": -74.068918,
    "dir": "Cl 26b #5-93, Santa Fé, Bogotá, Cundinamarca",
    "rating": 4.6,
    "rating_count": 5735,
    "price_level": null,
    "google_maps_uri": "https://maps.google.com/?cid=18145865700983678112&g_mp=Cidnb29nbGUubWFwcy5wbGFjZXMudjEuUGxhY2VzLlNlYXJjaFRleHQQAhgEIAA",
    "google_name": "Planetario de Bogotá"
  },
  "Casa de Nariño": {
    "place_id": "ChIJp_l-ogeZP44R5lkZJLO07t8",
    "lat": 4.595574,
    "lng": -74.077447,
    "dir": "Cra 8 #7 - 26, La Candelaria, Bogotá, Cundinamarca",
    "rating": 4.5,
    "rating_count": 983,
    "price_level": null,
    "google_maps_uri": "https://maps.google.com/?cid=16136033196412852710&g_mp=Cidnb29nbGUubWFwcy5wbGFjZXMudjEuUGxhY2VzLlNlYXJjaFRleHQQAhgEIAA",
    "google_name": "Presidencia de la República de Colombia"
  },
  "Parque de los Novios": {
    "place_id": "ChIJl5vN4LObP44RfQjTCGvSWG4",
    "lat": 4.65485,
    "lng": -74.08113,
    "dir": "Ac 63 #45-10, Bogotá",
    "rating": 4.6,
    "rating_count": 31171,
    "price_level": null,
    "google_maps_uri": "https://maps.google.com/?cid=7951336499273992317&g_mp=Cidnb29nbGUubWFwcy5wbGFjZXMudjEuUGxhY2VzLlNlYXJjaFRleHQQAhgEIAA",
    "google_name": "Parque de los Novios"
  },
  "Parque El Chicó (Museo)": {
    "place_id": "ChIJgTfkDnSZP44RXvFRQMSX2dk",
    "lat": 4.67389,
    "lng": -74.044785,
    "dir": "Ak 7 #93 - 01, Chapinero, Bogotá",
    "rating": 4.6,
    "rating_count": 8357,
    "price_level": null,
    "google_maps_uri": "https://maps.google.com/?cid=15697744845325070686&g_mp=Cidnb29nbGUubWFwcy5wbGFjZXMudjEuUGxhY2VzLlNlYXJjaFRleHQQAhgEIAA",
    "google_name": "Museo del Chicó"
  },
  "Mirador de La Calera": {
    "place_id": "ChIJU-WVq3CQP44RjX-H7NyVlbs",
    "lat": 4.675752,
    "lng": -74.023709,
    "dir": "Bogotá - La Calera, Usaquén, Bogotá, Cundinamarca",
    "rating": 4.6,
    "rating_count": 3862,
    "price_level": null,
    "google_maps_uri": "https://maps.google.com/?cid=13516874632716058509&g_mp=Cidnb29nbGUubWFwcy5wbGFjZXMudjEuUGxhY2VzLlNlYXJjaFRleHQQAhgEIAA",
    "google_name": "Mirador La Calera"
  },
  "Cerro El Cable (senderismo)": {
    "place_id": "ChIJGQFtLWybP44RyIrEFrreDSM",
    "lat": 4.627861,
    "lng": -74.049688,
    "dir": "67P7JXH2+44, Dg. 44, Bogotá",
    "rating": 4.7,
    "rating_count": 29,
    "price_level": null,
    "google_maps_uri": "https://maps.google.com/?cid=2525919856851978952&g_mp=Cidnb29nbGUubWFwcy5wbGFjZXMudjEuUGxhY2VzLlNlYXJjaFRleHQQAhgEIAA",
    "google_name": "Cerro El Cable"
  },
  "Parque Simón Bolívar — Lago": {
    "place_id": "ChIJt18wXkGbP44RrtziQHXso3o",
    "lat": 4.678419,
    "lng": -74.082356,
    "dir": "Cra. 65b #7549, Bogotá",
    "rating": 4.2,
    "rating_count": 80,
    "price_level": null,
    "google_maps_uri": "https://maps.google.com/?cid=8837166882174983342&g_mp=Cidnb29nbGUubWFwcy5wbGFjZXMudjEuUGxhY2VzLlNlYXJjaFRleHQQAhgEIAA",
    "google_name": "Parque Barrio Simón Bolívar"
  },
  "Centro Comercial El Retiro": {
    "place_id": "ChIJ-xtZ8V-aP44RmjptypScTzw",
    "lat": 4.666166,
    "lng": -74.053959,
    "dir": "Cl. 82 #11-75, Chapinero, Bogotá",
    "rating": 4.5,
    "rating_count": 8156,
    "price_level": null,
    "google_maps_uri": "https://maps.google.com/?cid=4345864328301066906&g_mp=Cidnb29nbGUubWFwcy5wbGFjZXMudjEuUGxhY2VzLlNlYXJjaFRleHQQAhgEIAA",
    "google_name": "C.C. El Retiro"
  },
  "Mercado de las Pulgas de San Alejo": {
    "place_id": "ChIJkcmZQ5mZP44RLv4wbYb5PPY",
    "lat": 4.610388,
    "lng": -74.070001,
    "dir": "Cra. 7 #2470, Bogotá",
    "rating": 4.4,
    "rating_count": 14212,
    "price_level": null,
    "google_maps_uri": "https://maps.google.com/?cid=17743330987685772846&g_mp=Cidnb29nbGUubWFwcy5wbGFjZXMudjEuUGxhY2VzLlNlYXJjaFRleHQQAhgEIAA",
    "google_name": "Mercado De Las Pulgas De San Alejo"
  },
  "Sorella": {
    "place_id": "ChIJeVkhD2CbP44RXtVOE5ic59s",
    "lat": 4.648887,
    "lng": -74.056402,
    "dir": "Cl. 66 Bis #4-71, Chapinero, Bogotá, Cundinamarca",
    "rating": 4.7,
    "rating_count": 1004,
    "price_level": "PRICE_LEVEL_MODERATE",
    "google_maps_uri": "https://maps.google.com/?cid=15845805990899275102&g_mp=Cidnb29nbGUubWFwcy5wbGFjZXMudjEuUGxhY2VzLlNlYXJjaFRleHQQAhgEIAA",
    "google_name": "Sorella"
  },
  "Fiero": {
    "place_id": "ChIJ-dbNZ0-bP44RLUE4yUlE4Ig",
    "lat": 4.649072,
    "lng": -74.056922,
    "dir": "Cl. 66 #4a 44, Chapinero, Bogotá, Cundinamarca",
    "rating": 4.7,
    "rating_count": 2427,
    "price_level": "PRICE_LEVEL_VERY_EXPENSIVE",
    "google_maps_uri": "https://maps.google.com/?cid=9862958267640594733&g_mp=Cidnb29nbGUubWFwcy5wbGFjZXMudjEuUGxhY2VzLlNlYXJjaFRleHQQAhgEIAA",
    "google_name": "Fiero"
  },
  "Insurgentes": {
    "place_id": "ChIJvdF0YzmaP44RHoFOR8OpkVQ",
    "lat": 4.641667,
    "lng": -74.061364,
    "dir": "Cl. 56 # 5-21, Bogotá",
    "rating": 4.5,
    "rating_count": 2837,
    "price_level": "PRICE_LEVEL_MODERATE",
    "google_maps_uri": "https://maps.google.com/?cid=6093838426989035806&g_mp=Cidnb29nbGUubWFwcy5wbGFjZXMudjEuUGxhY2VzLlNlYXJjaFRleHQQAhgEIAA",
    "google_name": "Insurgentes - Taco Bar"
  },
  "Cecilia": {
    "place_id": "ChIJY3nEGQCbP44ROLln06UJOew",
    "lat": 4.694634,
    "lng": -74.032175,
    "dir": "Cl. 117 #6a-60, Usaquén, Bogotá, Cundinamarca",
    "rating": 4.3,
    "rating_count": 362,
    "price_level": null,
    "google_maps_uri": "https://maps.google.com/?cid=17021646874444544312&g_mp=Cidnb29nbGUubWFwcy5wbGFjZXMudjEuUGxhY2VzLlNlYXJjaFRleHQQAhgEIAA",
    "google_name": "Restaurante Cecilia"
  },
  "Armadillo": {
    "place_id": "ChIJdafOhkKaP44R3qijmfkGFyA",
    "lat": 4.6541,
    "lng": -74.053851,
    "dir": "Cra. 5 #71A-05, Chapinero, Bogotá, Cundinamarca",
    "rating": 4.7,
    "rating_count": 1518,
    "price_level": "PRICE_LEVEL_EXPENSIVE",
    "google_maps_uri": "https://maps.google.com/?cid=2312324602772302046&g_mp=Cidnb29nbGUubWFwcy5wbGFjZXMudjEuUGxhY2VzLlNlYXJjaFRleHQQAhgEIAA",
    "google_name": "Restaurante Armadillo"
  },
  "Wok": {
    "place_id": "ChIJv4tr66eZP44RUh9E7HHceLM",
    "lat": 4.647979,
    "lng": -74.101937,
    "dir": "Avenida Calle 26 # 62-49 Local 1-48 C.C Gran Estación, Teusaquillo, Bogotá, Cundinamarca",
    "rating": 4.6,
    "rating_count": 6593,
    "price_level": "PRICE_LEVEL_MODERATE",
    "google_maps_uri": "https://maps.google.com/?cid=12932328711847681874&g_mp=Cidnb29nbGUubWFwcy5wbGFjZXMudjEuUGxhY2VzLlNlYXJjaFRleHQQAhgEIAA",
    "google_name": "WOK Gran Estación"
  },
  "Quinua y Amaranto": {
    "place_id": "ChIJ--ONsKiZP44R_-Ayc3uFOok",
    "lat": 4.595827,
    "lng": -74.071714,
    "dir": "Cl. 11 #2-95, La Candelaria, Bogotá",
    "rating": 4.7,
    "rating_count": 777,
    "price_level": "PRICE_LEVEL_MODERATE",
    "google_maps_uri": "https://maps.google.com/?cid=9888362697105531135&g_mp=Cidnb29nbGUubWFwcy5wbGFjZXMudjEuUGxhY2VzLlNlYXJjaFRleHQQAhgEIAA",
    "google_name": "Quinua Y Amaranto"
  },
  "Pajares Salinas": {
    "place_id": "ChIJedCE-5CaP44RONFsVbZxyyU",
    "lat": 4.678816,
    "lng": -74.044127,
    "dir": "Cra 10 #96-8, Bogotá",
    "rating": 4.7,
    "rating_count": 1884,
    "price_level": "PRICE_LEVEL_VERY_EXPENSIVE",
    "google_maps_uri": "https://maps.google.com/?cid=2723395427606778168&g_mp=Cidnb29nbGUubWFwcy5wbGFjZXMudjEuUGxhY2VzLlNlYXJjaFRleHQQAhgEIAA",
    "google_name": "Restaurante Pajares Salinas"
  },
  "Abasto": {
    "place_id": "ChIJ8xEOLUuZP44RsEupRA7gfcU",
    "lat": 4.69643,
    "lng": -74.029803,
    "dir": "Cra. 6 #119b 52, Bogotá, D.C, Bogotá",
    "rating": 4.3,
    "rating_count": 642,
    "price_level": null,
    "google_maps_uri": "https://maps.google.com/?cid=14230776749446745008&g_mp=Cidnb29nbGUubWFwcy5wbGFjZXMudjEuUGxhY2VzLlNlYXJjaFRleHQQAhgEIAA",
    "google_name": "Arrieros Usaquen"
  },
  "Masa (Quinta Camacho)": {
    "place_id": "ChIJ41-LIkKaP44RIgGFoJ-zRu4",
    "lat": 4.651682,
    "lng": -74.055005,
    "dir": "Cl. 70 #4-83, Bogotá",
    "rating": 4.5,
    "rating_count": 3798,
    "price_level": "PRICE_LEVEL_MODERATE",
    "google_maps_uri": "https://maps.google.com/?cid=17169608127570837794&g_mp=Cidnb29nbGUubWFwcy5wbGFjZXMudjEuUGxhY2VzLlNlYXJjaFRleHQQAhgEIAA",
    "google_name": "Masa 70 | Restaurante"
  },
  "Bogotá Beer Company (Zona T)": {
    "place_id": "ChIJxY4QtYqaP44Rwll3XybO8UA",
    "lat": 4.667255,
    "lng": -74.053314,
    "dir": "Cra. 12 # 83-33, Chapinero, Bogotá, Cundinamarca",
    "rating": 4.6,
    "rating_count": 2634,
    "price_level": "PRICE_LEVEL_MODERATE",
    "google_maps_uri": "https://maps.google.com/?cid=4679748152020392386&g_mp=Cidnb29nbGUubWFwcy5wbGFjZXMudjEuUGxhY2VzLlNlYXJjaFRleHQQAhgEIAA",
    "google_name": "Bogotá Beer Company"
  },
  "Cementerio Central": {
    "place_id": "ChIJbSmHfCqaP44RiG7lK14yrAA",
    "lat": 4.616359,
    "lng": -74.074904,
    "dir": "Cra 20 #3780, Los Mártires, Bogotá",
    "rating": 4,
    "rating_count": 196,
    "price_level": null,
    "google_maps_uri": "https://maps.google.com/?cid=48469076039003784&g_mp=Cidnb29nbGUubWFwcy5wbGFjZXMudjEuUGxhY2VzLlNlYXJjaFRleHQQAhgEIAA",
    "google_name": "Cementerio Central"
  },
  "Barrio La Macarena": {
    "place_id": "ChIJf_CsxpmZP44R6PMRfIU4HSI",
    "lat": 4.610704,
    "lng": -74.066363,
    "dir": "La Macarena, Santa Fé, Bogotá",
    "rating": null,
    "rating_count": null,
    "price_level": null,
    "google_maps_uri": "https://maps.google.com/?cid=2458183117577516008&g_mp=Cidnb29nbGUubWFwcy5wbGFjZXMudjEuUGxhY2VzLlNlYXJjaFRleHQQAhgEIAA",
    "google_name": "La Macarena"
  },
  "Usaquén (centro histórico)": {
    "place_id": "ChIJAzTzPKiaP44RCZTlEhFZFLg",
    "lat": 4.696714,
    "lng": -74.030861,
    "dir": "Ak 7 #120 - 20, Usaquén, Bogotá, Cundinamarca",
    "rating": 4.6,
    "rating_count": 2557,
    "price_level": null,
    "google_maps_uri": "https://maps.google.com/?cid=13264324732379304969&g_mp=Cidnb29nbGUubWFwcy5wbGFjZXMudjEuUGxhY2VzLlNlYXJjaFRleHQQAhgEIAA",
    "google_name": "Usaquén Plaza | Centro Comercial y Empresarial"
  },
  "Monumento a los Héroes / Zona": {
    "place_id": "ChIJCxc-ZfaaP44Rbhr4nPRkTok",
    "lat": 4.668186,
    "lng": -74.060309,
    "dir": "Cl. 81 #18, Bogotá",
    "rating": 3.7,
    "rating_count": 10369,
    "price_level": null,
    "google_maps_uri": "https://maps.google.com/?cid=9893956433147861614&g_mp=Cidnb29nbGUubWFwcy5wbGFjZXMudjEuUGxhY2VzLlNlYXJjaFRleHQQAhgEIAA",
    "google_name": "Estación Los Heroes Transmilenio"
  },
  "Fundación Santa Fe de Bogotá": {
    "place_id": "ChIJ1TOi722bP44RGjUTWZCMfNI",
    "lat": 4.695643,
    "lng": -74.033027,
    "dir": "110111, Bogotá",
    "rating": 3.8,
    "rating_count": 379,
    "price_level": null,
    "google_maps_uri": "https://maps.google.com/?cid=15167152196674598170&g_mp=Cidnb29nbGUubWFwcy5wbGFjZXMudjEuUGxhY2VzLlNlYXJjaFRleHQQAhgEIAA",
    "google_name": "Fundación Santa Fe de Bogotá"
  },
  "Clínica del Country": {
    "place_id": "ChIJC8Wg-PSaP44R-9UgF0KTN84",
    "lat": 4.668707,
    "lng": -74.056804,
    "dir": "Cra, 16 #82-57, Chapinero, Bogotá, Cundinamarca",
    "rating": 3.7,
    "rating_count": 814,
    "price_level": null,
    "google_maps_uri": "https://maps.google.com/?cid=14859507407597393403&g_mp=Cidnb29nbGUubWFwcy5wbGFjZXMudjEuUGxhY2VzLlNlYXJjaFRleHQQAhgEIAA",
    "google_name": "Clínica del Country"
  },
  "Clínica Shaio": {
    "place_id": "ChIJxSc-FNeaP44RP97LB7vQxD8",
    "lat": 4.698252,
    "lng": -74.073075,
    "dir": "Dg. 115a #70C-75, Bogotá",
    "rating": 3.7,
    "rating_count": 2716,
    "price_level": null,
    "google_maps_uri": "https://maps.google.com/?cid=4595027021533011519&g_mp=Cidnb29nbGUubWFwcy5wbGFjZXMudjEuUGxhY2VzLlNlYXJjaFRleHQQAhgEIAA",
    "google_name": "Clínica Shaio"
  },
  "Clínica Reina Sofía": {
    "place_id": "ChIJs3s2v0qFP44ReDBETBcmZf8",
    "lat": 4.706663,
    "lng": -74.051886,
    "dir": "Ac 127 #20-78, Bogotá",
    "rating": 4,
    "rating_count": 947,
    "price_level": null,
    "google_maps_uri": "https://maps.google.com/?cid=18403157333825040504&g_mp=Cidnb29nbGUubWFwcy5wbGFjZXMudjEuUGxhY2VzLlNlYXJjaFRleHQQAhgEIAA",
    "google_name": "Clínica Reina Sofia"
  },
  "Hospital Universitario San Ignacio": {
    "place_id": "ChIJP9Bm-CiaP44REh0ux0amw-I",
    "lat": 4.629254,
    "lng": -74.067649,
    "dir": "Cra. 13a #41-01, Bogotá",
    "rating": 3,
    "rating_count": 7,
    "price_level": null,
    "google_maps_uri": "https://maps.google.com/?cid=16340086695949901074&g_mp=Cidnb29nbGUubWFwcy5wbGFjZXMudjEuUGxhY2VzLlNlYXJjaFRleHQQAhgEIAA",
    "google_name": "Hospital Universitario San Ignacio - Sede Administrativa"
  },
  "Fundación Cardioinfantil": {
    "place_id": "ChIJWwCslH6FP44RUIg2mrwjl7k",
    "lat": 4.741228,
    "lng": -74.034068,
    "dir": "Cl. 163a #13B-60, Bogotá",
    "rating": 3.9,
    "rating_count": 1133,
    "price_level": null,
    "google_maps_uri": "https://maps.google.com/?cid=13373196911448066128&g_mp=Cidnb29nbGUubWFwcy5wbGFjZXMudjEuUGxhY2VzLlNlYXJjaFRleHQQAhgEIAA",
    "google_name": "LaCardio"
  },
  "Carulla Quinta Camacho": {
    "place_id": "ChIJ9-p1n0SaP44RtAwJ09x3ZKE",
    "lat": 4.65507,
    "lng": -74.059617,
    "dir": "Cra. 10a #70-37, Chapinero, Bogotá, Cundinamarca",
    "rating": 4.4,
    "rating_count": 5774,
    "price_level": null,
    "google_maps_uri": "https://maps.google.com/?cid=11629551928094559412&g_mp=Cidnb29nbGUubWFwcy5wbGFjZXMudjEuUGxhY2VzLlNlYXJjaFRleHQQAhgEIAA",
    "google_name": "Carulla Quinta Camacho"
  },
  "Carulla Calle 85": {
    "place_id": "ChIJ-4z48fSaP44RQr8J3gRZhrE",
    "lat": 4.670073,
    "lng": -74.055664,
    "dir": "Ac. 85 #15-23, Chapinero, Bogotá, Cundinamarca",
    "rating": 4.4,
    "rating_count": 15282,
    "price_level": null,
    "google_maps_uri": "https://maps.google.com/?cid=12792009669032394562&g_mp=Cidnb29nbGUubWFwcy5wbGFjZXMudjEuUGxhY2VzLlNlYXJjaFRleHQQAhgEIAA",
    "google_name": "Carulla Country"
  },
  "Carulla Candelaria / Centro": {
    "place_id": "ChIJr9reL6KZP44R5JWcS5YNDBQ",
    "lat": 4.605326,
    "lng": -74.07019,
    "dir": "Centro Comercial Bacatá, Av. Ciudad de Lima #5 - 30, Bogotá",
    "rating": 4.3,
    "rating_count": 1672,
    "price_level": null,
    "google_maps_uri": "https://maps.google.com/?cid=1444544519643895268&g_mp=Cidnb29nbGUubWFwcy5wbGFjZXMudjEuUGxhY2VzLlNlYXJjaFRleHQQAhgEIAA",
    "google_name": "Carulla"
  },
  "Éxito Chapinero": {
    "place_id": "ChIJZaC9lzCaP44R_vKU4IC-_jM",
    "lat": 4.640105,
    "lng": -74.065964,
    "dir": "Cl. 52 #13 - 70, Chapinero, Bogotá, Cundinamarca",
    "rating": 4.2,
    "rating_count": 31820,
    "price_level": null,
    "google_maps_uri": "https://maps.google.com/?cid=3746641400751780606&g_mp=Cidnb29nbGUubWFwcy5wbGFjZXMudjEuUGxhY2VzLlNlYXJjaFRleHQQAhgEIAA",
    "google_name": "Éxito Chapinero"
  },
  "D1 (Chapinero Alto)": {
    "place_id": "ChIJ6WiXrxqbP44RSODVKliilN4",
    "lat": 4.650259,
    "lng": -74.055709,
    "dir": "Cra. 4 #67-87, Bogotá",
    "rating": 4.4,
    "rating_count": 305,
    "price_level": null,
    "google_maps_uri": "https://maps.google.com/?cid=16038622672532660296&g_mp=Cidnb29nbGUubWFwcy5wbGFjZXMudjEuUGxhY2VzLlNlYXJjaFRleHQQAhgEIAA",
    "google_name": "Tiendas D1 - Chapinero Alto"
  },
  "Cruz Verde (Chapinero / Zona G)": {
    "place_id": "ChIJtfetk0KaP44Rp6xyMEh6OeI",
    "lat": 4.654585,
    "lng": -74.054713,
    "dir": "Cl. 72 #5 - 90, Chapinero, Bogotá, Cundinamarca",
    "rating": 2.8,
    "rating_count": 59,
    "price_level": null,
    "google_maps_uri": "https://maps.google.com/?cid=16301194776713276583&g_mp=Cidnb29nbGUubWFwcy5wbGFjZXMudjEuUGxhY2VzLlNlYXJjaFRleHQQAhgEIAA",
    "google_name": "Cruz Verde"
  },
  "Cruz Verde (Calle 127 / Norte)": {
    "place_id": "ChIJ0Sf8oHqFP44RIbbJaNyCgxI",
    "lat": 4.70685,
    "lng": -74.052389,
    "dir": "Ac 127 #21 - 60 local 101, Usaquén, Bogotá, Cundinamarca",
    "rating": 2,
    "rating_count": 4,
    "price_level": null,
    "google_maps_uri": "https://maps.google.com/?cid=1334053797794264609&g_mp=Cidnb29nbGUubWFwcy5wbGFjZXMudjEuUGxhY2VzLlNlYXJjaFRleHQQAhgEIAA",
    "google_name": "Cruz Verde"
  },
  "Farmacenter (Chapinero)": {
    "place_id": "ChIJV7cMC2CaP44R63HiuIq4Pmo",
    "lat": 4.665258,
    "lng": -74.053127,
    "dir": "Cra. 11 #81 - 28, Chapinero, Bogotá, Cundinamarca",
    "rating": 4.7,
    "rating_count": 28,
    "price_level": null,
    "google_maps_uri": "https://maps.google.com/?cid=7655759322523267563&g_mp=Cidnb29nbGUubWFwcy5wbGFjZXMudjEuUGxhY2VzLlNlYXJjaFRleHQQAhgEIAA",
    "google_name": "Farmacenter El Retiro"
  },
  "Drogas La Rebaja (Centro)": {
    "place_id": "ChIJmxypLpuZP44Re8M82oTLJgI",
    "lat": 4.616327,
    "lng": -74.068583,
    "dir": "Ak 7 #29-18, Santa Fé, Bogotá, Cundinamarca",
    "rating": 2.6,
    "rating_count": 14,
    "price_level": null,
    "google_maps_uri": "https://maps.google.com/?cid=155035008648397691&g_mp=Cidnb29nbGUubWFwcy5wbGFjZXMudjEuUGxhY2VzLlNlYXJjaFRleHQQAhgEIAA",
    "google_name": "la rebaja PLUS No. 9 DROGUERIA Y MINIMARKET Tequendama Bogota D.C."
  },
  "Centro Comercial Unicentro": {
    "place_id": "ChIJDySgbrKaP44RzUogN8V8YJY",
    "lat": 4.702143,
    "lng": -74.041117,
    "dir": "Ak 15 #124-30, Usaquén, Bogotá",
    "rating": 4.5,
    "rating_count": 65028,
    "price_level": null,
    "google_maps_uri": "https://maps.google.com/?cid=10835797889928678093&g_mp=Cidnb29nbGUubWFwcy5wbGFjZXMudjEuUGxhY2VzLlNlYXJjaFRleHQQAhgEIAA",
    "google_name": "Unicentro Bogotá Centro Comercial"
  },
  "Centro Comercial Gran Estación": {
    "place_id": "ChIJBaV-TJWbP44RMxYdS4GUjNI",
    "lat": 4.647399,
    "lng": -74.101919,
    "dir": "Ac. 26 #62-47, Bogotá",
    "rating": 4.5,
    "rating_count": 15935,
    "price_level": null,
    "google_maps_uri": "https://maps.google.com/?cid=15171664527736247859&g_mp=Cidnb29nbGUubWFwcy5wbGFjZXMudjEuUGxhY2VzLlNlYXJjaFRleHQQAhgEIAA",
    "google_name": "Centro Comercial Gran Estación"
  },
  "Centro Comercial Santafé": {
    "place_id": "ChIJqz-1z5OFP44RokFO6MMUE34",
    "lat": 4.762233,
    "lng": -74.046423,
    "dir": "Cl. 185 #45-3, Suba, Bogotá",
    "rating": 4.5,
    "rating_count": 66987,
    "price_level": null,
    "google_maps_uri": "https://maps.google.com/?cid=9084627704985043362&g_mp=Cidnb29nbGUubWFwcy5wbGFjZXMudjEuUGxhY2VzLlNlYXJjaFRleHQQAhgEIAA",
    "google_name": "Centro Comercial Santafé Bogotá"
  },
  "Aeropuerto El Dorado (BOG)": {
    "place_id": "ChIJB4YPQ7acP44RMK8U71RZ6o4",
    "lat": 4.700969,
    "lng": -74.146093,
    "dir": "En la, Ac. 26 #103-09, Fontibón, Bogotá",
    "rating": 4.6,
    "rating_count": 123914,
    "price_level": null,
    "google_maps_uri": "https://maps.google.com/?cid=10298141719259295536&g_mp=Cidnb29nbGUubWFwcy5wbGFjZXMudjEuUGxhY2VzLlNlYXJjaFRleHQQAhgEIAA",
    "google_name": "Aeropuerto Internacional El Dorado"
  },
  "Terminal de Transportes de Bogotá": {
    "place_id": "ChIJN0N_-I6bP44RIepY0pmXaYw",
    "lat": 4.653996,
    "lng": -74.114973,
    "dir": "Dg. 23 #69a - 55, Bogotá",
    "rating": 4.1,
    "rating_count": 2557,
    "price_level": null,
    "google_maps_uri": "https://maps.google.com/?cid=10117784724779362849&g_mp=Cidnb29nbGUubWFwcy5wbGFjZXMudjEuUGxhY2VzLlNlYXJjaFRleHQQAhgEIAA",
    "google_name": "Terminal de Transporte S.A."
  },
  "TransMilenio — Estación Calle 100": {
    "place_id": "ChIJHw2wttyaP44RF4ZUMTSbtnA",
    "lat": 4.687057,
    "lng": -74.064449,
    "dir": "Cra. 63 #10388, Bogotá",
    "rating": 3.5,
    "rating_count": 599,
    "price_level": null,
    "google_maps_uri": "https://maps.google.com/?cid=8121849626477495831&g_mp=Cidnb29nbGUubWFwcy5wbGFjZXMudjEuUGxhY2VzLlNlYXJjaFRleHQQAhgEIAA",
    "google_name": "TransMilenio - Suba - Calle 100"
  },
  "TransMilenio — Estación Museo del Oro": {
    "place_id": "ChIJ993PMZuZP44RjZonF5bkSm8",
    "lat": 4.615173,
    "lng": -74.069267,
    "dir": "Ak 7, Bogotá",
    "rating": 3.9,
    "rating_count": 6532,
    "price_level": null,
    "google_maps_uri": "https://maps.google.com/?cid=8019473419771288205&g_mp=Cidnb29nbGUubWFwcy5wbGFjZXMudjEuUGxhY2VzLlNlYXJjaFRleHQQAhgEIAA",
    "google_name": "TransMilenio - Museo Nacional"
  },
  "Portal El Dorado (TransMilenio)": {
    "place_id": "ChIJ6eFe53ebP44ROe_igryAObM",
    "lat": 4.681282,
    "lng": -74.121182,
    "dir": "Troncal Cl 26, Bogotá",
    "rating": 4.1,
    "rating_count": 209,
    "price_level": null,
    "google_maps_uri": "https://maps.google.com/?cid=12914494953599725369&g_mp=Cidnb29nbGUubWFwcy5wbGFjZXMudjEuUGxhY2VzLlNlYXJjaFRleHQQAhgEIAA",
    "google_name": "TransMilenio - Portal El Dorado"
  },
  "Pesquera Jaramillo": {
    "place_id": "ChIJNRTvIbWaP44R6pu5MJ550gM",
    "lat": 4.704698,
    "lng": -74.050818,
    "dir": "Cra 20 #124-55, Bogotá",
    "rating": 4.3,
    "rating_count": 827,
    "price_level": "PRICE_LEVEL_EXPENSIVE",
    "google_maps_uri": "https://maps.google.com/?cid=275416247552285674&g_mp=Cidnb29nbGUubWFwcy5wbGFjZXMudjEuUGxhY2VzLlNlYXJjaFRleHQQAhgEIAA",
    "google_name": "Pesquera Jaramillo Santa Bárbara"
  },
  "Tábula": {
    "place_id": "ChIJa5fusxeZP44R18Gkcgs0Ptc",
    "lat": 4.614569,
    "lng": -74.069206,
    "dir": "Ak 7 #27 - 68 local 1, Santa Fé, Bogotá, Cundinamarca",
    "rating": 3.6,
    "rating_count": 10,
    "price_level": null,
    "google_maps_uri": "https://maps.google.com/?cid=15509891390483251671&g_mp=Cidnb29nbGUubWFwcy5wbGFjZXMudjEuUGxhY2VzLlNlYXJjaFRleHQQAhgEIAA",
    "google_name": "TABULA GASTROBAR"
  },
  "La Bifería": {
    "place_id": "ChIJlf30K7qaP44RJfPxEWgK_zk",
    "lat": 4.693898,
    "lng": -74.047378,
    "dir": "Cl. 109 #17 - 14, Usaquén, Bogotá, Cundinamarca",
    "rating": 4.3,
    "rating_count": 1821,
    "price_level": "PRICE_LEVEL_EXPENSIVE",
    "google_maps_uri": "https://maps.google.com/?cid=4179070421317055269&g_mp=Cidnb29nbGUubWFwcy5wbGFjZXMudjEuUGxhY2VzLlNlYXJjaFRleHQQAhgEIAA",
    "google_name": "La Biferia 109"
  },
  "Donostiarra": {
    "place_id": "EiBDcmEuIDUgIzY3LTIzLCBCb2dvdMOhLCBDb2xvbWJpYSIwEi4KFAoSCfchRnZBmj-OEXkRl5D7tHqIEBcqFAoSCS9TFvNBmj-OEeJpSn6iPTWW",
    "lat": 4.650347,
    "lng": -74.056804,
    "dir": "Cra. 5 #67-23, Bogotá",
    "rating": null,
    "rating_count": null,
    "price_level": null,
    "google_maps_uri": "https://maps.google.com/?q=Cra.+5+%2367-23,+Bogot%C3%A1,+Colombia&ftid=0x8e3f9a41764621f7:0xcf22863216460698&g_mp=Cidnb29nbGUubWFwcy5wbGFjZXMudjEuUGxhY2VzLlNlYXJjaFRleHQQAhgEIAA",
    "google_name": "Cra. 5 #67-23"
  },
  "Quiebracanto": {
    "place_id": "ChIJjZFO3KOZP44RGrQvYhn4xqU",
    "lat": 4.603195,
    "lng": -74.070646,
    "dir": "Cra. 5 #17-76, Santa Fé, Bogotá, Cundinamarca",
    "rating": 4.6,
    "rating_count": 2263,
    "price_level": "PRICE_LEVEL_MODERATE",
    "google_maps_uri": "https://maps.google.com/?cid=11945507849551983642&g_mp=Cidnb29nbGUubWFwcy5wbGFjZXMudjEuUGxhY2VzLlNlYXJjaFRleHQQAhgEIAA",
    "google_name": "Quiebracanto"
  },
  "Son Havana": {
    "place_id": "ChIJS49bqkSaP44RKn0-65lhU1E",
    "lat": 4.656186,
    "lng": -74.059644,
    "dir": "Cl. 71 #11-07, Bogotá",
    "rating": 4.7,
    "rating_count": 66,
    "price_level": null,
    "google_maps_uri": "https://maps.google.com/?cid=5860134853843778858&g_mp=Cidnb29nbGUubWFwcy5wbGFjZXMudjEuUGxhY2VzLlNlYXJjaFRleHQQAhgEIAA",
    "google_name": "Son de Habana"
  },
  "Cinemateca de Bogotá": {
    "place_id": "ChIJyYha0JiZP44RbZ0OS7z22do",
    "lat": 4.603161,
    "lng": -74.067672,
    "dir": "Cra. 3 #19-10, Santa Fé, Bogotá, Cundinamarca",
    "rating": 4.8,
    "rating_count": 7472,
    "price_level": null,
    "google_maps_uri": "https://maps.google.com/?cid=15769906858788035949&g_mp=Cidnb29nbGUubWFwcy5wbGFjZXMudjEuUGxhY2VzLlNlYXJjaFRleHQQAhgEIAA",
    "google_name": "Cinemateca de Bogotá"
  },
  "Museo de Arte Moderno de Bogotá (MAMBO)": {
    "place_id": "ChIJMZ9WEZmZP44Rd9Enj8ETJSI",
    "lat": 4.610405,
    "lng": -74.069274,
    "dir": "Cl. 24 #6-00, Bogotá",
    "rating": 4.6,
    "rating_count": 4366,
    "price_level": null,
    "google_maps_uri": "https://maps.google.com/?cid=2460394493479211383&g_mp=Cidnb29nbGUubWFwcy5wbGFjZXMudjEuUGxhY2VzLlNlYXJjaFRleHQQAhgEIAA",
    "google_name": "Museo de Arte Moderno de Bogotá MAMBO"
  },
  "Graffiti Tour La Candelaria": {
    "place_id": "ChIJFcfrX2KZP44R0YPjFq3yE1A",
    "lat": 4.601955,
    "lng": -74.071947,
    "dir": "Cra. 6 #15-88, Santa Fé, Bogotá, Cundinamarca",
    "rating": 5,
    "rating_count": 4713,
    "price_level": null,
    "google_maps_uri": "https://maps.google.com/?cid=5770222372819010513&g_mp=Cidnb29nbGUubWFwcy5wbGFjZXMudjEuUGxhY2VzLlNlYXJjaFRleHQQAhgEIAA",
    "google_name": "Capital Graffiti Tours"
  },
  "Ciclovía de Bogotá": {
    "place_id": "ChIJq9ZwDfyYP44ROsKG0N50acU",
    "lat": 4.582722,
    "lng": -74.084213,
    "dir": "San Cristóbal, Bogotá, Colombia",
    "rating": 4.7,
    "rating_count": 3,
    "price_level": null,
    "google_maps_uri": "https://maps.google.com/?cid=14225029398356476474&g_mp=Cidnb29nbGUubWFwcy5wbGFjZXMudjEuUGxhY2VzLlNlYXJjaFRleHQQAhgEIAA",
    "google_name": "Ciclovia Bicicleteria De La Septima"
  },
  "Media Torta": {
    "place_id": "ChIJdyLLz6SZP44RiZXD2fYHdX4",
    "lat": 4.600344,
    "lng": -74.065917,
    "dir": "Cl. 18 #1-05E, Bogotá",
    "rating": 4.6,
    "rating_count": 2495,
    "price_level": null,
    "google_maps_uri": "https://maps.google.com/?cid=9112198177850889609&g_mp=Cidnb29nbGUubWFwcy5wbGFjZXMudjEuUGxhY2VzLlNlYXJjaFRleHQQAhgEIAA",
    "google_name": "Teatro al Aire Libre La Media Torta"
  },
  "Clínica de Marly": {
    "place_id": "ChIJj70-qDqaP44RPLoUPiijUbk",
    "lat": 4.63671,
    "lng": -74.065495,
    "dir": "Calle 50. 9-67 | Bogotá, Chapinero, Cundinamarca",
    "rating": 3.7,
    "rating_count": 909,
    "price_level": null,
    "google_maps_uri": "https://maps.google.com/?cid=13353633763365796412&g_mp=Cidnb29nbGUubWFwcy5wbGFjZXMudjEuUGxhY2VzLlNlYXJjaFRleHQQAhgEIAA",
    "google_name": "Clínica de Marly"
  },
  "Cajeros Bancolombia (Zona T)": {
    "place_id": "ChIJM2ZfRcWbP44RInFf9nVaFIg",
    "lat": 4.647688,
    "lng": -74.064171,
    "dir": "Kr 13 #N° 60 - 91, Chapinero, Bogotá, Cundinamarca",
    "rating": 3.4,
    "rating_count": 8,
    "price_level": null,
    "google_maps_uri": "https://maps.google.com/?cid=9805561751383535906&g_mp=Cidnb29nbGUubWFwcy5wbGFjZXMudjEuUGxhY2VzLlNlYXJjaFRleHQQAhgEIAA",
    "google_name": "Cajero Bancolombia"
  },
  "Crepes & Waffles (Parque 93)": {
    "place_id": "ChIJ8zXy6pGaP44RidpaK8PW7G4",
    "lat": 4.677364,
    "lng": -74.048268,
    "dir": "Cl 93b #12-10, Chapinero, Bogotá, Cundinamarca",
    "rating": 4.6,
    "rating_count": 7605,
    "price_level": "PRICE_LEVEL_MODERATE",
    "google_maps_uri": "https://maps.google.com/?cid=7992999572410129033&g_mp=Cidnb29nbGUubWFwcy5wbGFjZXMudjEuUGxhY2VzLlNlYXJjaFRleHQQAhgEIAA",
    "google_name": "Crepes & Waffles Parque 93"
  },
  "Crepes & Waffles (Zona T / Calle 85)": {
    "place_id": "ChIJv49v_YqaP44R0mYjflJD0zU",
    "lat": 4.668653,
    "lng": -74.051287,
    "dir": "Carrera 11, Ac. 85 # 85 - 79, Bogotá",
    "rating": 4.5,
    "rating_count": 1657,
    "price_level": "PRICE_LEVEL_MODERATE",
    "google_maps_uri": "https://maps.google.com/?cid=3878517725678757586&g_mp=Cidnb29nbGUubWFwcy5wbGFjZXMudjEuUGxhY2VzLlNlYXJjaFRleHQQAhgEIAA",
    "google_name": "Crepes & Waffles Calle 85"
  },
  "Juan Valdez Café (Zona G)": {
    "place_id": "ChIJFaZSUiGbP44RHrX89DHNrjU",
    "lat": 4.667578,
    "lng": -74.053322,
    "dir": "Cra. 12 #84-12, Bogotá",
    "rating": 4.5,
    "rating_count": 509,
    "price_level": "PRICE_LEVEL_MODERATE",
    "google_maps_uri": "https://maps.google.com/?cid=3868254744405128478&g_mp=Cidnb29nbGUubWFwcy5wbGFjZXMudjEuUGxhY2VzLlNlYXJjaFRleHQQAhgEIAA",
    "google_name": "Juan Valdez - Zona T"
  },
  "El Corral (Zona T)": {
    "place_id": "ChIJiainqJCbP44RfUiv3cqTQ8Q",
    "lat": 4.639448,
    "lng": -74.065446,
    "dir": "Kr 13 #52-31, Bogotá",
    "rating": 4.2,
    "rating_count": 29,
    "price_level": "PRICE_LEVEL_MODERATE",
    "google_maps_uri": "https://maps.google.com/?cid=14142309754385418365&g_mp=Cidnb29nbGUubWFwcy5wbGFjZXMudjEuUGxhY2VzLlNlYXJjaFRleHQQAhgEIAA",
    "google_name": "El Corral Éxito Chapinero"
  },
  "Carulla Calle 63 (Chapinero)": {
    "place_id": "ChIJSQAkPEeaP44R91m99rIFH_k",
    "lat": 4.647969,
    "lng": -74.060486,
    "dir": "Ak 7 #6242, Bogotá",
    "rating": 3.5,
    "rating_count": 2,
    "price_level": null,
    "google_maps_uri": "https://maps.google.com/?cid=17951072905924008439&g_mp=Cidnb29nbGUubWFwcy5wbGFjZXMudjEuUGxhY2VzLlNlYXJjaFRleHQQAhgEIAA",
    "google_name": "Parqueadero Carulla Cl63"
  },
  "Éxito Norte (Calle 134)": {
    "place_id": "ChIJEY5f5SKFP44RoAphe4dfBHw",
    "lat": 4.712621,
    "lng": -74.033821,
    "dir": "Cl. 134 #9 - 51, Bogotá",
    "rating": 4.4,
    "rating_count": 22612,
    "price_level": "PRICE_LEVEL_MODERATE",
    "google_maps_uri": "https://maps.google.com/?cid=8936372596105087648&g_mp=Cidnb29nbGUubWFwcy5wbGFjZXMudjEuUGxhY2VzLlNlYXJjaFRleHQQAhgEIAA",
    "google_name": "Éxito Wow Country"
  },
  "Carulla Usaquén (Calle 116)": {
    "place_id": "ChIJ7yt1drCaP44RW6ffYYM2Vek",
    "lat": 4.695956,
    "lng": -74.04351,
    "dir": "Ak 15 #114A-33, Bogotá",
    "rating": 4.4,
    "rating_count": 7319,
    "price_level": null,
    "google_maps_uri": "https://maps.google.com/?cid=16813404721768277851&g_mp=Cidnb29nbGUubWFwcy5wbGFjZXMudjEuUGxhY2VzLlNlYXJjaFRleHQQAhgEIAA",
    "google_name": "Carulla Pepe Sierra"
  },
  "Centro Comercial Atlantis Plaza": {
    "place_id": "ChIJAZwshl-aP44RvavmGroSNFE",
    "lat": 4.666214,
    "lng": -74.055611,
    "dir": "Cl. 81 #13-05, Chapinero, Bogotá, Cundinamarca",
    "rating": 4.4,
    "rating_count": 18255,
    "price_level": null,
    "google_maps_uri": "https://maps.google.com/?cid=5851322406385658813&g_mp=Cidnb29nbGUubWFwcy5wbGFjZXMudjEuUGxhY2VzLlNlYXJjaFRleHQQAhgEIAA",
    "google_name": "Centro Comercial Atlantis"
  },
  "Centro Comercial Titán Plaza": {
    "place_id": "ChIJyTRGFCWbP44Ry7R4a62jOao",
    "lat": 4.694708,
    "lng": -74.086188,
    "dir": "Cra. 72 #80-94, Bogotá",
    "rating": 4.6,
    "rating_count": 84151,
    "price_level": null,
    "google_maps_uri": "https://maps.google.com/?cid=12266015025347998923&g_mp=Cidnb29nbGUubWFwcy5wbGFjZXMudjEuUGxhY2VzLlNlYXJjaFRleHQQAhgEIAA",
    "google_name": "Centro Comercial Titán Plaza"
  }
}